stop_id,stop_lat,stop_lon,stop_name
22482,13.09943,77.58817,Sheshadripuram College
33142,12.76839,77.77011,Anekal Road Junction
24833,12.90424,77.47270,Depot-12 Kengeri
23309,13.01860,77.55537,Depot-26 Yeshawanthapura
33020,13.24270,77.82258,I Basapura
24860,12.97253,77.44263,Depot-35 Kannalli
24839,12.84740,77.67229,Depot-19 Electronic City
39492,12.90862,77.53855,Arehalli Arch
23625,12.75414,77.48453,Bolare Gate
36260,12.96296,77.56049,SRSC
36050,12.98765,77.57430,CNTRL
36202,12.92400,77.55328,KMK1
21078,12.98780,77.73366,Pattandur Agrahara Gate
24861,12.76888,77.41428,Depot-36 Bidadi
31848,13.10248,77.62770,Agrahara Layout Cross
26714,12.87084,77.63828,Subhashnagara Hosa Road
21212,13.04309,77.51288,T Dasarahalli
24849,12.78019,77.63446,Depot-27 Jigani
39130,12.92875,77.58014,JNMSC
22407,12.94826,77.49697,PVP School
39493,12.89329,77.53548,TRHF
39182,12.85470,77.36541,Bethimgere Gate
39539,13.27950,77.38020,Kattihosahalli
36261,12.95066,77.53768,DPJN
37227,12.97702,77.72689,WTTMC
36051,12.90721,77.60054,JPN3rd
36203,12.92514,77.55055,KTRGP1
20816,13.03500,77.62849,HBR Layout
30164,13.12130,77.36814,Bommanahalli
21191,12.92959,77.61584,St Johns Hospital
39387,13.17050,77.34653,Harsha Institute
37839,12.94017,77.53325,VBN
30152,13.15942,77.39788,Bolamaranahalli
37962,12.99319,77.57045,Mantri Green Apartment Sampige Talkies
24533,12.92985,77.76583,Chikka Nekkundi
20972,13.20205,77.45696,Madhure Village
22287,12.96694,77.62089,Military Accounts Office
35810,12.96687,77.66151,Jeevan Bheemanagara Cross1
21917,12.96048,77.64352,Domlur Flyover
36262,12.95100,77.53742,DPJN
37228,12.84800,77.63550,TGR
37840,12.99004,77.47275,NICE Toll Magadi Road
29728,13.17629,77.36669,Baradi
39540,12.84939,77.73777,Gopasandra
39616,13.01987,77.50181,D22G
35317,12.91400,77.65181,CPWD Quarters HSR Layout
36052,12.90606,77.59652,DLMC
21197,12.94171,77.56200,Subramanya Swamy Temple
30154,13.05288,77.35565,Bombay Estate Guruvanahalli
24537,13.23031,77.69109,Chikka Sanne Gate
22001,12.95460,77.68215,HAL Kalyana Mantap
30157,13.00280,77.30152,Bommanahalli
23874,12.91910,77.59999,Gurappanapalya
22022,12.95662,77.67535,Helicopter Division
21857,12.99534,77.60829,Coles Park
39096,12.95605,77.71488,KDLHG
37841,12.88155,77.54317,RGVC
31877,12.91277,77.47358,Bande Mutt Badavane Radiant Enclave
36053,12.90618,77.59504,DLMY1
36205,13.01738,77.55676,YTTMC
30365,12.76835,77.77015,Anekal Road Junction
32910,12.78849,77.67367,Hennagara
20760,13.02392,77.59889,Dinnur Main Road
39617,13.01910,77.50600,D22G
22394,12.90146,77.54411,Subramanyapura Police Station
36307,12.87361,77.62535,Beguru
22628,12.95498,77.68756,Yamalur Cross
32287,13.03781,77.35004,Chikka Tanda Manchenahalli Cross
37963,12.99326,77.57030,CS-Mantri Green Apartment Sampige Talkies
33422,13.09556,77.38107,Kempalinganahalli Cross
22745,12.91988,77.60019,Gurappanapalya
36263,12.99876,77.54988,NVRNG
39541,12.84942,77.73772,Gopasandra
21475,12.98504,77.48214,Byadarahalli
30200,12.89286,77.52894,Brigade Omega Apartment
22023,12.80676,77.69892,Hennagara Gate
35979,13.04087,77.54501,501-C4
36054,12.90720,77.60052,JPN3
37230,12.97719,77.60881,KMR
21865,12.96268,77.62756,Commando Hospital
38204,12.92043,77.66518,Sarjapura Road Ibbaluru Junction
22179,12.95997,77.64687,Kodihalli
20668,13.04271,77.57711,Bhoopasandra Ayyappa Bakery
38799,12.97737,77.71639,Kundalahalli Metro Station
22811,13.09266,77.35927,Yalachagere Cross
34276,12.89878,77.54389,Subramanyapura Post Office
37964,13.01322,77.66356,BCNDB
21192,12.92907,77.61527,St Johns Hospital
24547,12.84861,77.74180,Chikka Thimmasandra Colony
31883,12.83036,77.48568,Banjarapalya
36264,12.91926,77.66790,Shahi Exports PVT Ltd Unit-7
23656,12.97740,77.72693,White Field Bus Station (Vydehi Hospital)
39484,13.10061,77.55388,Mahatma Gandhi Layout
22812,13.09270,77.35932,Yalachagere Cross
21942,12.95977,77.74683,Forum Mall
37965,12.98486,77.60518,Russell Market
38033,12.85601,77.56900,Anjanapura 10 Block
36309,12.99279,77.52135,CS-Depot-31
22066,13.05358,77.53075,IAF Jalahalli
22347,12.94865,77.57567,National College
21280,12.95141,77.59510,Wilson Garden Police Station
37231,12.97514,77.60815,KMR1
36207,12.87149,77.58550,CS-Depot-34
35980,13.04064,77.54458,501-C5
25851,12.78863,77.67344,Hennagara
39573,13.21230,77.74829,Channahalli
21612,12.95244,77.33529,TG Halli Quarters
37842,12.95763,77.56211,RGVB
36265,12.91939,77.66765,CS-Shahi Exports PVT Ltd Unit-7
38205,12.70922,77.69838,ANK
24176,12.86238,77.67481,Dodda Nagamangala
37232,13.06830,77.91946,Doddadenahalli 1
37966,12.98483,77.60540,Russell Market
36056,12.90609,77.59658,DLMY1
36310,12.97975,77.51095,CS-BDA Complex Nagarabhavi
22577,12.95897,77.74642,Varthur kodi
35366,12.89532,77.86700,Chikka Thirupathi
21915,12.96045,77.64251,Domlur Flyover
39290,12.78503,77.66051,Jigani DLF Cloub House
25141,12.70278,77.39691,Dombara Doddy
33205,13.01351,77.59644,Kabir Ashrama
36969,12.95774,77.51886,Nagarabhavi Bus Station-Axis Bank ATM
28169,12.89885,77.71371,Sarjapura Wipro Campus
36266,12.92510,77.61909,CS-Madivala Mazid
38189,13.07003,77.42737,GJGDHL
22585,12.99278,77.59503,Vasantha Nagara
21559,12.97004,77.40989,Lakkuppe
37843,12.92529,77.55006,KTG
32130,12.89301,77.52884,Brigade Omega Apartment
36311,13.00432,77.68209,CS-ITI Factory
36057,13.09574,77.59386,ylk
36209,12.93830,77.53337,VBN
38035,13.00002,77.64056,SRMV
22160,12.89759,77.54631,Subramanyapura KEB
38206,12.72420,77.72072,Karpura Gate
34744,13.18151,77.57876,T Agrahara
38207,12.70935,77.69671,ANK
38190,13.06793,77.42693,GJGDHL
37844,12.92534,77.54996,KTG
37968,13.19967,77.68231,Cargo Village
38208,12.70914,77.69839,ANK
23404,12.89528,77.84535,Baguru Colony
32291,12.84866,77.74180,Chikka Thimmasandra Colony
35932,12.91608,77.61575,Kuvempunagara Bus station (BTM Layout)
22624,12.89639,77.54827,Yadalam Nagara
36267,12.97026,77.61079,CS-Garuda Mall Magrath Road
24551,12.85679,77.65274,Chikka Thoguru
38036,13.00215,77.63944,SRMV1
24549,12.89536,77.86697,Chikka Thirupathi
22242,12.95661,77.57376,Makkala Koota
22163,13.06556,77.54428,Kendriya Vidyalaya
32911,12.78859,77.67345,Hennagara
37233,12.95428,77.54399,MRBS
32076,12.84759,77.76370,Bikkana Hosahalli
38199,12.95170,77.77287,VPWG
38200,12.95739,77.77385,AGOGT1
35951,12.93067,77.54353,Hosakerehalli  Junction
37845,12.92524,77.54988,KTG
37969,13.19963,77.69561,DHFL
32295,13.26359,77.53248,Chikka Tumkur
38037,13.00037,77.64056,SMRV
35984,13.04168,77.54724,501-C1
37858,13.21896,77.69930,DDS
39389,13.18880,77.33539,Prabhakaranagar
38168,13.04998,77.59277,Navayuga Toll  (Military Dairy Farm)
36059,13.24322,77.38657,Ambalagere
39131,13.02873,77.51971,TVS
29143,12.84295,77.72754,Muttanalluru Gate
37234,12.95413,77.54404,MRBS Connector
38201,12.95747,77.77386,AGPGT1
23730,12.93788,77.56908,NR Colony
32389,13.30660,77.54574,D Cross Doddaballapura
23411,12.89332,77.85016,Ganagaluru Circle
38209,12.71826,77.73618,RCH
38214,12.95014,77.59592,WGPS
23619,12.70297,77.48082,Kebbedoddi Gate
34773,13.05156,77.63151,Telecom Layout Ashwath Nagara
38210,12.71986,77.73646,RCH
28602,13.20216,77.45699,Madhure Village
37970,13.19956,77.67919,KIA
38198,12.96846,77.75596,Rama Temple
36313,12.80177,77.39285,Depot-49 Bidadi
38202,12.95748,77.77396,GJPGT2
32562,12.70280,77.39699,Dombara Doddy
32937,13.04101,77.33828,Honnasandra
39486,13.08588,77.50509,Nanjundegowda layout
22204,13.00804,77.69217,KR Pura Govt Hospital
38215,12.96812,77.65477,Senior Officers Quaters
35985,13.04152,77.54692,501-C2
36269,12.91940,77.58949,MRBS
36212,12.87105,77.59343,LYLSC
23733,12.92907,77.56460,Indira Nursing Home
38038,13.18867,77.79459,Papanahalli Gate
38211,12.72024,77.73689,RCH
36270,12.91958,77.59002,JNN1
35986,13.04096,77.54522,501-C3
29329,12.83786,77.72468,Narayanaghatta Gate
34784,13.19668,77.82694,Thammarasanahalli
22252,12.97746,77.60771,Maniksha Parade Ground
37236,12.95387,77.54406,MRBSC
36314,12.80022,77.39193,BDD
37971,13.10800,77.57284,YSTF
32957,12.97485,77.82955,Hosahalli Cross Devanagondi
25283,12.95759,77.23518,Gandhi Circle Magadi
23794,12.94262,77.57696,MN Krishna Rao Park
39238,12.94602,77.59565,10th c
25925,13.04099,77.33824,Honnasandra
39388,13.18888,77.33538,Prabhakaranagar
39609,12.86800,77.52301,Prestige Primrose Hills
20806,12.97793,77.62830,Halasuru
22206,13.00821,77.69535,KR Pura Market
36271,12.91961,77.58951,JNN2
35987,13.04333,77.55206,501-C6
36315,12.80097,77.39204,BDD
24572,13.10510,77.82485,Chikkahullur
33323,13.20708,77.66833,Kannamangala Gate
30181,12.96819,77.28955,Bordugallu
37972,12.78852,77.51210,Concorde Napa Valley
37237,12.95371,77.54400,MRBS1
30183,13.00483,77.77764,Boregowdanapalya
36214,12.89240,77.58191,CS-Brigade Millenium
21689,13.04610,77.52231,Ayyappa Temple Jalahalli Cross
21688,13.04623,77.52243,Ayyappa Temple Jalahalli Cross
38212,12.72039,77.73825,RCH
38039,12.96508,77.87107,DMLRC
33403,13.28125,77.53137,KCP Kalyana Mantapa
25285,12.64478,77.49757,Gandhi Farm Gate
33973,12.87256,77.46762,Muneshwara Layout
21840,12.91168,77.55226,Chikkallasandra Aralimara
31443,12.82437,77.49000,Thimmegowdarapalya
37847,12.93896,77.52981,PMDL
35988,13.03839,77.54204,501-C7
36272,13.02143,77.70038,CS-TC Palya
36316,12.80040,77.39193,D49
25256,13.19593,77.61956,Gadenahalli Gate
37238,12.95346,77.54340,MRBS1
39132,13.02867,77.51971,TVSC
37973,12.79079,77.50490,PTRP
34792,13.19037,77.62759,Tharabanahalli
38040,13.02379,77.67920,NRLO
25823,12.81787,77.70903,Heelalige
36063,13.26850,77.38911,Kasaghatta
38192,13.03229,77.73139,Cipla Avalahalli
28527,12.98345,77.87104,Lingadeera Mallsandra Cross
38213,12.72028,77.73772,RCH
26902,12.84854,77.51610,Thataguni BWSSB
37848,12.93920,77.53126,PMDL
36076,13.17669,77.40053,KJGH
21841,12.91157,77.55238,Chikkallasandra Aralimara
26923,13.22041,77.74816,Thellahalli Gate
39574,13.21232,77.74833,Channahalli
38218,12.96812,77.65471,CS-Senior Officers Quaters
36273,12.99196,77.60368,CS-Bamboo Bazaar
36216,12.88437,77.59663,HLMG
31901,13.10231,77.38869,Basavanahalli Cross
25266,12.91382,77.86169,Ganagaluru Cross
35989,13.03484,77.54118,GGP3
37239,12.95380,77.54311,MRBS2
33703,12.76212,77.67869,Lingapura
32781,13.28017,77.76282,Chikka Tattamangala Gate
35916,12.80181,77.70512,Chandapura
38041,13.02990,77.67764,NRI Layout
22205,13.00821,77.69214,KR Pura Govt Hospital
36318,13.00032,77.67612,KRP
33380,12.72449,77.72088,Karpura Gate
31428,13.26947,77.76217,Dodda Thimmanahalli
28295,12.98784,77.57449,Swastik Sheshadripuram
35990,13.03833,77.54195,501-CD2
37240,12.95358,77.54322,MRBS2
24580,13.25705,77.76370,Chikkamaranahalli
34194,12.78122,77.63079,OTC Circle
36906,12.91375,77.48740,Kengeri bus station -Nirashrithara Seva Kendra
23519,13.06835,77.56952,Tennis Court Thindlu
38042,13.01322,77.76119,Seegehalli Gate Kadugodi
23546,12.79019,77.50452,Gandhi Nagara
30187,12.80020,77.42063,Bosch Main Gate Bidadi
36274,13.09408,77.65470,CS-Kannur Circle
30192,12.96334,77.47212,Brahma Devara Gudda
35009,13.12475,77.76944,Thimmasandra
20946,13.00798,77.69271,KR Pura Govt Hospital
23248,13.01020,77.65760,B Channasandra
39487,13.08588,77.50515,Nanjundegowda layout
32308,13.09665,77.32266,Chikkamaranahalli Colony
36319,13.00020,77.67631,KRP
35991,13.04125,77.54592,GGP7
30236,12.78692,77.31067,Burumarana Doddy
37241,12.97729,77.60873,KMR
39390,13.17038,77.34653,Harsha Institute
22351,12.95371,77.61752,Neelasandra Rose Garden
36275,12.99477,77.60981,CS-St Johns High School Thomas Cafe
36066,13.23008,77.27239,Asian Paints Dabaspet
37850,12.91756,77.62379,Central Silk Board
39169,13.05940,77.50701,MLS1
37976,13.04276,77.42496,CS-Centre For Nano And Soft Matter Sciences
39680,13.05519,77.57318,Tatanagara
35003,12.82430,77.48999,Thimmegowdarapalya
31805,12.76223,77.41606,Thimmegowdana Doddy
31948,12.99490,77.24643,Belagumba
38217,12.96816,77.65469,Senior Officers Quaters
38216,12.96814,77.65479,CS-Senior Officers Quaters
37977,12.86070,77.74112,CS-Kada agrahara
34007,12.84306,77.72747,Muttanalluru Gate
37242,12.90780,77.69362,Nandi Kitchen Doddakannahalli
22818,12.89609,77.57010,Yalachenahalli Metro Station
23989,12.97707,77.48056,BTS Layout Basaveshwaranagara
26474,12.83497,77.71904,Singena Agrahara Cross
29983,12.75734,77.76184,Bhakthipura Cross
36818,12.97785,77.57343,Kempegowda Bus Station-Public Toilet - 4
39663,12.87661,77.62602,Sri Nagareshwara Temple Beguru
28552,13.04893,77.56748,Lottegollahalli
24156,12.82802,77.62331,Hullahalli Cross
30235,13.06408,77.32832,Buragamarada Palya
36321,12.86176,77.52999,Silk Institute Metro Station
31808,13.23444,77.59397,Thindlu
37243,13.08189,77.61194,JKR
36277,13.06773,77.58023,CS-Show Mall Sahakara Nagara
36220,12.91169,77.55229,CKLS
37978,12.92391,77.69521,CS-Devarabisanahalli
38045,12.93312,77.74279,KK School
36068,13.21928,77.29097,Bharath Petrol Bunk Thyamagondlu
29094,13.05252,77.50041,Munikondappa Layout Widia Factory
32889,13.10478,77.62978,Hazarath Tippu Nagara
28603,12.92472,77.61867,Madivala Masidi
24599,13.13180,77.90317,Chikkanahalli
25317,12.84626,77.47073,Gangasandra
39575,13.17414,77.74387,Kaggalahalli Gate
39245,12.95417,77.59838,BMTC Central Work Shop-1 Shanthinagara
32316,12.88160,77.35521,Chikkanahalli
36322,12.99548,77.53683,KML
32319,12.88186,77.35537,Chikkanahalli
30171,13.12580,77.41669,Bommashettyhalli Cross
22757,12.80092,77.57748,Bannerughatta National Park
37244,12.91186,77.64910,PRP
36069,12.99099,77.57477,CNTRL
36221,12.91172,77.55235,CKLSA1
38046,12.91719,77.62282,CSB 1
33816,13.02131,77.60708,Manjushree Hospital
24321,12.92663,77.78176,Janthagundanahalli Cross
39161,12.69736,77.47798,HAHOH
24110,13.05955,77.58992,Ganesha Temple Sahakara Nagara
37979,12.90220,77.70850,CS-Belenus Hospital Near Carmelram Gate
31885,13.25811,77.55281,Bank Circle Bashettyhalli
35346,12.89496,77.55515,Pipeline Vasanthapura
39181,12.85467,77.36538,Bethimgere Gate
37852,13.04250,77.61357,Veerannapalya
36279,13.10220,77.58288,CS-Malya Adithi School
37245,12.91155,77.64911,PRP
36281,12.98791,77.53725,CS-Havanur Circle
32326,13.05107,77.88648,Chikkathaggali
26331,12.91300,77.56344,JHBCS Layout Cross
26490,12.83498,77.71896,Singena Agrahara Cross
35995,13.04057,77.54434,GGP6
36070,12.97746,77.57407,KBS Dummy
36222,12.95369,77.59218,SNBS1
24140,12.85446,77.60949,Beguru Nice Road Junction
22587,12.89257,77.55945,Sharadanagara
34288,13.21702,77.65078,Pujanahalli Gate
39485,13.10062,77.55391,Mahatma Gandhi Layout
20811,12.99729,77.56047,Harishchandra Ghat
39664,12.83965,77.62842,Sri Kote Thimmaraya Temple Bettadasanapura
35086,12.97994,77.60981,Commercial Street
37246,13.04117,77.59008,HBLB Dummy
32117,13.12583,77.41671,Bommashettyhalli Cross
35996,13.03267,77.54074,GGP1
32022,12.75736,77.76180,Bhakthipura Cross
36223,12.90841,77.53647,Poornaprajnalayout NEW Bus Stand
35378,12.99521,77.59203,Ganesha Temple Vasanthanagara
37981,12.90255,77.70900,Belenus Hospital Near Carmelram Gate
34369,12.82087,77.71873,Ramasagara
35842,12.93039,77.25513,Kannamangala
36071,12.97555,77.57464,KBS Dummy1
29079,12.99451,77.32037,Mummenahalli
32329,13.07216,77.49942,Chimni Hills
37853,13.10366,77.44395,HNS
27019,12.84346,77.64425,Thogur Cross
22105,12.78206,77.77197,Jigala Cross
38220,13.00524,77.68506,ITI1
38224,13.00520,77.68498,ITI4
30233,13.30722,77.73069,Bullahalli
22386,12.89515,77.55510,Pipeline ISRO Layout
35997,13.03346,77.54088,GGP2
36072,12.97746,77.57411,KBS Connector
37247,13.08373,77.56061,VRP1
36224,12.93964,77.91132,Cloride Metal
36325,12.97671,77.72593,WTTMC
35077,12.72772,77.48694,Kaggalahalli
21128,12.99848,77.58203,RM Guttahalli
35074,12.91552,77.58575,Marenahalli
38219,12.83656,77.67389,Veerasandra Shikaripalya
36280,12.96582,77.59739,CS-Richmond Circle
23528,13.05711,77.59323,Kodigehalli Gate
35965,12.90122,77.41071,Srinivasa Saligrama
37982,12.98916,77.72667,Prestige Shantiniketana /Manipal Hospital
34805,12.82729,77.61090,Chinnaiahnapalya 1
39576,13.17415,77.74394,Kaggalahalli Gate
38221,13.00593,77.68629,ITI1
27823,12.89159,77.56034,Ragi Machine
37855,13.00064,77.61604,MSQRD
37983,12.98872,77.72844,Prestige Shantiniketana /Manipal Hospital
31488,13.09537,77.91735,Thornahalli Devastana
25249,12.86846,77.61615,Fullinfaws College Yelenahalli
38222,13.00647,77.68418,ITI2
38229,12.91252,77.54017,CS-Arehalli Taja Cake
23973,12.71125,77.69931,Chowdareddy Circle
37248,13.08392,77.56031,VRP2
36324,12.97752,77.57406,KBS Dummy
39239,12.97090,77.60477,SJC
38050,12.97987,77.75168,Coffee Day Hope Farm
39665,12.86113,77.70550,Sri Madduramma Temple Huskuru
22172,13.02590,77.61991,Kadugondanahalli Railway Gate
37856,12.91230,77.65178,CPWDQ
36074,13.17562,77.39596,UDCKH
38227,13.06200,77.71588,CS-Bidarahalli
38051,13.14258,77.48301,WHRGT2
37249,13.09797,77.39415,NLM1
22334,12.94190,77.55322,Nagendra Block
33971,12.99448,77.32013,Mummenahalli
38223,13.00537,77.68486,ITI3
25107,12.84741,77.69086,Doddamma Temple
39162,12.69747,77.47784,HRHL
39577,12.89156,77.60817,Cafe Coffee Day (Vijaya Bank Layout)
26724,12.79946,77.31889,Sugganahalli
21725,12.98525,77.64246,Bayyappanahalli Cross
34614,13.22891,77.62850,Singarahalli Cross
26633,12.89926,77.48761,Sridhara Gudda
20915,13.00404,77.66315,Kasthurinagara
33710,13.04892,77.56750,Lottegollahalli
37857,13.06691,77.50253,SGHSPTL
35125,13.02337,77.58405,Gangenahalli
38193,12.99663,77.62051,COXT
38052,13.16261,77.61100,WBRH1
24635,12.83344,77.60959,Chinnayyanapalya Cross
35998,12.91789,77.57322,BSK
36284,12.99098,77.64658,BYP
36075,13.17581,77.39893,UDCHK
39542,12.91535,77.53825,AGSWPT
32338,12.85266,77.71179,Chinthala Madivala
31508,13.23901,77.65698,Uganawadi
39163,12.69768,77.47802,KNKRD
38194,12.99065,77.61668,HSPL
39246,13.00147,77.68430,BMTC Central Work Shop-2 KR Puram
31862,13.01131,77.64604,Banaswadi Fire Station
38053,13.16302,77.61002,WBHTR1
37251,13.09832,77.39379,NLM Way Point
36285,12.98287,77.59712,CS-Corner Of Queens Road
35305,12.83451,77.69732,Sampige Nagara
37252,12.98749,77.49262,Herohalli Cross
39666,12.83600,77.72565,Sri Varadharajaswamy Chowdeshwari Narayanaghatta
26264,13.04518,77.54791,Jalahalli Village
34942,12.74362,77.37748,Uragahalli Bidadi
26277,12.98880,77.49952,Janapriya Apartment
36329,12.98561,77.54935,DBG
32868,12.75411,77.75597,Harohalli
20650,12.94184,77.50601,BUC Ladies Hostel
36000,12.91742,77.57361,BSK2
38195,12.99065,77.61668,HSPL
39543,12.91610,77.53988,AGS13C
36328,13.10129,77.48083,Tharabanahalli
37985,12.98013,77.70890,CS-Seetharampalya Metro Station
37859,13.21867,77.70045,DDS
38054,13.16301,77.61012,CBTH1
31951,13.10207,77.63351,Bellahalli Cross
36001,12.91418,77.48683,KGR
25340,13.14336,77.58862,Gantaganahalli
36287,12.99157,77.64341,BYP
36330,12.98566,77.54947,DBG
32340,13.12052,77.81861,Chokkahalli Factory Gate
37253,13.01042,77.52474,LGRNBS
37860,13.21878,77.70004,DDS
32874,12.75407,77.75601,Harohalli
36230,13.08506,77.73169,D47
31523,13.12358,77.77325,Vabasandra Gate
38055,13.16294,77.61040,WBHT2
21805,12.99370,77.59689,Cantonment Railway Station
38196,12.99139,77.61509,HSPL
33245,12.80645,77.50319,Kaggalipura Colony
33270,12.77103,77.62727,Kallubalu Cross
36288,12.99200,77.64349,BYP
37254,13.01028,77.52532,LGRNBS2
32348,12.87066,77.72120,Chokkasandra
31822,12.74075,77.48076,Vaderahalli
36002,12.91370,77.48629,KGR1
23361,12.85928,77.56996,KRB Indian Oil Petrol Bunk Kembathalli
36078,13.09767,77.38513,NMGKNGLC
32897,12.80873,77.70889,Heelalige Cross
38056,12.99741,77.64197,SVRTS1
39164,12.72768,77.48697,KGLI
36231,12.86047,77.73498,CS-Head Start School Kommasandra
36390,13.00054,77.52472,Chowdeshwarinagara
36332,13.22224,77.33722,Doddabele Tumakur Road
30424,12.95708,77.49539,Jnana Jyothi Nagara 2nd Phase
34739,13.06186,77.58724,Suvarna Karnataka Bus Stand
32349,12.87355,77.73402,Chokkasandra Cross
35696,13.23219,77.65601,Uganawadi Cross
37255,13.01054,77.52486,LGRNBS1
30296,12.74876,77.42431,Byramangala
36003,12.91410,77.48704,KGR2
36079,12.87779,77.59543,Hulimavu Gate Dummy
36232,12.92847,77.55678,CS-Channammanakere Achukattu
23549,12.77412,77.49242,Nelagulli Cross
39544,12.91770,77.54165,AGS14CRS
38057,12.99778,77.64206,VRPA
39667,12.78893,77.73570,Sri Sushil Daham Jain Temple Guddatti Gate
34932,13.06114,77.67258,Vaderahalli Avalahalli
30299,12.80181,77.39781,Byramangala Cross
37989,13.13364,77.72209,The Light House International Academy
36290,12.92890,77.91897,Thalakunte
37990,13.13359,77.72208,CS-The Light House International Academy
25349,12.86832,77.70359,Gattahalli
35075,12.80472,77.66291,Yarandahalli
35359,12.92596,77.62026,Kendriya Sadana Koramangala
36333,13.18847,77.35810,Jakkanahalli Cross
30276,12.97049,77.38862,Bychakuppe
30292,13.17957,77.61997,Bynahalli Chikkajala
30313,12.98148,77.66565,Byrasandra
36004,12.91359,77.48662,KGR3
37256,13.01046,77.52526,LGRNBS2
36080,12.95510,77.58006,PK Circle Dummy
36233,13.01807,77.55713,YTTMC
32653,12.86831,77.70361,Gattahalli
24660,13.18320,77.88681,Chokkasandra Gate
38058,12.96375,77.58394,Bengaluru
34843,12.89535,77.71297,Kodathi Wipro
36291,12.92896,77.91930,Talakunte
22258,13.13225,77.70593,Maralakunte
36081,12.95522,77.58010,PKC Dummy
24669,13.10983,77.52810,Choudappa Layout
36334,13.18848,77.35814,Jakkanahalli Cross
20609,12.99209,77.50467,Aralimara Sunkadakatte
22270,13.00955,77.64413,Maruthi School
39668,12.89442,77.82454,Sri Bhoo Varaha Swamy Temple Mugalur
38670,12.80254,77.50880,Kaggalipura Junction
36234,13.24698,77.71744,Depot-50 Devanahalli
36005,12.91397,77.48714,KGR9
28911,12.75043,77.74778,Mayasandra Gate
37258,13.03063,77.85234,GVPC
25355,12.84115,77.46999,Gaviyanapalya
33465,13.08032,77.51561,Kere Guddadahalli
37992,13.03881,77.64470,Vaddarapalya (Anugraha Meadows)
30303,13.15387,77.33824,Byranahalli Cross
30305,13.19938,77.37682,Byranayakanahalli
36082,12.95526,77.58011,PKC Dummy 2
30337,12.93433,77.44829,Byrohalli Gate
32930,12.94840,77.22533,Hombalammanapete
23971,12.71119,77.69949,Chowdareddy Circle
36293,13.08484,77.59945,CS-Shubha Ultima Club House
34923,12.88242,77.77587,Valagere Kallahalli
24621,12.72257,77.65589,Chinnaiahnapalya
36335,13.20340,77.36466,Lakkappanhalli
36292,12.94285,77.94126,Rampura
33888,12.75039,77.74776,Mayasandra Gate
32358,12.75911,77.69019,Chowdeshwari Temple
36336,13.20353,77.36476,Lakkappanahalli
37863,12.90709,77.41804,RMH
25366,12.91834,77.69757,Gear School
37993,13.03893,77.64472,CS-Vaddarapalya (Anugraha Meadows)
34149,12.94226,77.22140,Nethenalli
36235,13.24701,77.71697,D50
36083,13.15992,77.57791,Nagadasanahalli
38130,12.90602,77.74656,CS-Heggondanahalli
37259,13.03036,77.85588,GVP1
22543,12.78930,77.52234,Tharalu
21564,12.94762,77.59124,Mallige Hospital
37308,13.02609,77.58522,CBI BENGALURU
39669,12.91849,77.73681,Sri Shaneshwara Swamy Temple Gunjuru
32041,12.91904,77.50901,BHEL Layout Water Tank
37864,13.07511,77.36513,SPC
25367,13.03085,77.57753,Geddalahalli
36008,12.91357,77.48695,KGR8
36084,12.98689,77.58004,SVDSTR Dummy
36236,13.24715,77.71646,D50
38059,13.26905,77.69398,SOMN
37994,13.02553,77.66747,FAZ FARMS
36337,13.21491,77.36514,Vadakunte
24270,13.03272,77.55408,Chowdeshwarinagara JP Park
36294,13.08458,77.59914,Shubha Ultima Club House
20786,13.03080,77.57750,Geddalahalli
37865,13.07511,77.36482,SPC
36237,13.29640,77.68022,Muddanayakanahalli
37995,13.02555,77.66744,CS-FAZ FARMS
34418,13.26712,77.49765,RH Farm
22529,12.93589,77.57384,Tata Silk Farm
38060,13.26945,77.69409,SDHM
36085,12.98642,77.57970,SVSTR2
22478,12.92347,77.57353,Shastri Bakery
20757,13.04700,77.56904,Devinagara Cross
32189,13.24803,77.52086,Byrasandra Aralumallige
35532,12.91246,77.53700,AGS Layout Arehalli
38061,13.27011,77.69442,SGHOP
37996,13.36842,77.72579,Nandi Cross
26471,13.04994,77.59846,Sindhi High School Kuvempu Road
29533,13.09723,77.39774,Anjaneya Temple Nelamangala
36238,13.29644,77.68025,Muddanayakanahalli
20758,13.04689,77.56920,Devinagara Cross
36086,13.18430,77.51857,KLKWP
36339,13.00873,77.56932,CS-Malleshwara Sai Hot Chips
36296,12.98769,77.51926,CS-Summanahalli
36297,13.00957,77.48280,CS-Andhrahalli Govt School
36239,13.30982,77.68272,Sonnenahalli
37867,12.93596,77.51278,Jnanabharathi Metro Station
37311,12.87803,77.51657,CKGP
29801,13.07156,77.72081,Bayyappanahalli
36340,13.13151,77.61551,CS-Indian Airforce Yelahanka
37262,13.03071,77.85709,GVP4
39165,12.72765,77.48705,KGLH
29809,12.97211,77.51293,BDA Complex Cross Nagarabhavi
39189,12.88666,77.45118,RMHCRS
21133,13.03784,77.57427,RMS Sanjayanagara
36087,13.18409,77.51916,KKLC1
38062,13.23604,77.67014,T Hosahalli
25644,12.79200,77.52986,Guttepalya
37312,12.88055,77.51653,CKP
28370,12.73952,77.73455,Shobha Apartment
32145,13.18600,77.54023,Budumanahalli Cross
38000,13.39551,77.72662,BGS College Chikkaballapura
22477,12.92363,77.57367,Shastri Bakery
23022,13.16162,77.64223,Akkayammana Betta
36088,13.17938,77.53137,KKLC2
36240,13.00226,77.61626,COLS-1
36341,12.98601,77.58863,CS-Sophiya School
37868,12.91160,77.62604,Roopena Agrahara FLY
39546,12.91030,77.53579,PPLO Way Point
39204,13.16523,77.70853,National Cricket Academy
38063,13.23602,77.67022,T Hosahalli
33468,12.74265,77.52776,Shanimahathma Temple
36241,12.84205,77.49422,AGR2
24745,12.90409,77.44984,CWS-3 BMTC
38064,13.23648,77.66763,SHOKP
39545,12.91169,77.53543,PPLOWPT
37869,12.94008,77.55347,BCH
36089,13.17926,77.53132,KKLWP1
22048,13.07531,77.78637,Hosakote Flower Market
27274,13.16100,77.62690,Vidyanagara Cross
37314,12.87814,77.51659,CKGP
37870,12.93878,77.55251,BCH1
22427,12.77774,77.52525,Richard Farm
29540,12.97002,77.49658,Annapoorneshwarinagara Cross
36090,13.17297,77.56442,RJK Connector
36242,13.01731,77.56031,YPRTG
35915,12.96371,77.48000,Upkar Layout Cross
37315,12.88841,77.51612,CKGPL
39488,13.08835,77.55988,TDL5
22428,12.77769,77.52521,Richard Farm
37871,13.02009,77.60405,KVLBSA
38357,12.87033,77.65368,Hosa Road
38001,13.39584,77.72679,BGS College Chikkaballapura
23802,12.93985,77.60950,Adugodi Police Station
39547,12.91369,77.53776,AGLOA
39713,12.89845,77.71487,WKDT
24824,12.95442,77.59488,Depot-02 Shanthinagara
38355,12.90584,77.55814,Kumaraswamy Layout 2nd Stage
38356,12.88053,77.55225,BCMC Dummy
35890,12.87143,77.53833,Thalaghattapura Metro Station
37999,13.38321,77.72630,RTO Office Chikkaballapura
36014,12.97213,77.57029,CTPT
36344,12.95368,77.59229,SNBSC
36301,12.99067,77.64337,BYHCRS
35416,12.85224,77.57265,11th Block Anjanapura
39714,12.89821,77.71484,KWPR
21103,12.97540,77.55234,Prasanna Theatre
21023,13.00742,77.50557,Milk Dairy Hegganahalli
29065,12.93193,77.41726,Muddayyanapalya
21050,12.99967,77.54976,Rajajinagara Metro Station
22531,12.77368,77.52926,Tattaguppe
39532,13.19076,77.41992,CS-Kannamangala Gate ( Chikka Madhure)
22073,12.96658,77.64141,Indiranagara 100ft Road
36015,12.96958,77.57024,CTPT1
36244,13.01719,77.56051,YPRC-2
26047,13.05926,77.39389,Byregowdanahalli3
32831,12.72049,77.71359,Haldenahalli
22530,12.77370,77.52934,Tattaguppe
36302,12.97317,77.64120,IND6
31900,13.11040,77.38823,Basavanahalli
38002,13.42953,77.73056,Govt Junior College Chikkaballapura
22229,13.00906,77.62320,Lingarajapura Bridge
36303,12.96419,77.64166,DPH
22994,12.73301,77.65440,Aduru
34885,13.04748,77.59642,Vidyaniketan School Hebbala
30767,13.19653,77.41037,Kannamangala Madhure
39548,12.91242,77.53734,ALSLOC
39579,12.89157,77.60818,CS-Cafe Coffee Day (Vijaya Bank Layout)
33563,12.76432,77.63555,Konasandra Cross
36016,12.98860,77.53401,Con2
36245,13.02020,77.56254,YTG1
39715,12.89781,77.71475,KWPR1
38003,13.43000,77.73072,Govt Junior College Chikkaballapura
21563,12.93644,77.58392,Madhavan Park
37998,13.38317,77.72626,RTO Office Chikkaballapura
38004,13.20135,77.66141,Navayuga Toll (V-298MN)
36304,12.96797,77.64148,NHC1
38362,12.88467,77.55312,Doddakallasandra Metro Station
32458,13.24543,77.71274,Devanahalli New Bus Station
23977,12.73136,77.70636,Chikka Hagade Gate
21104,12.95032,77.49119,Press Layout
36519,12.93672,77.58392,CS-Madhavan Park
38360,12.87768,77.54498,Vajarahalli Metro Station
28113,12.91781,77.65136,Sai Gold Palace HSR Layout 27th Main
37648,13.43768,77.73199,Chikkaballapura
38367,12.73392,77.73928,M Medahalli
36348,12.96382,77.57890,KMT
39671,13.01212,77.56929,Sri Circle Maramma Temple Malleshwaram
33904,13.06777,77.51584,Medarahalli Railway Gate
39692,12.91207,77.43706,Bheemanakuppe Sri Krishna Mandira
29748,13.11036,77.38819,Basavanahalli
38006,12.95461,77.68070,CS-HAL Museum
38067,13.12943,77.70565,Maralakunte Colony
38375,13.12174,77.61129,Bagalur Cross
38359,12.88890,77.56257,Konanakunte Cross  Metro Station
31602,13.30340,77.79136,Vijayapura Kere Kodi
32092,12.98905,77.81322,Biscuits Factory
38005,13.20126,77.66171,Navayuga Toll (V-298MN)
38363,12.88469,77.55255,Doddakallasandra Metro Station
28180,13.00047,77.63991,Sathya Nagara
34153,12.91943,77.45588,New Byrohalli
28942,13.06770,77.51580,Medarahalli  Railway Gate
36349,13.05917,77.55931,CS-Dodda Bommasandra Arch
36094,13.20098,77.52298,BYPC2
36308,12.90384,77.44982,CS-CWS-3
39691,12.91203,77.43711,Bheemanakuppe Sri Krishna Mandira
37877,12.90741,77.47593,DDBL
38383,13.19454,77.69678,KIA
38368,12.94417,77.53012,NCF
38007,12.95468,77.68096,HAL Museum
23637,12.82488,77.51369,Dayananda Sagar Vidya Samste
23318,12.94822,77.56824,Ramakrishna Ashrama
38369,12.99792,77.62332,ITCF
38370,12.96346,77.58044,MKT
38377,13.02753,77.63262,CS-Hennur Junction
38372,13.21285,77.55423,YAPB Toll (Volvo)
38374,12.96089,77.55758,VNNT
34131,13.03155,77.50364,Nelagadarenahalli
36350,12.96827,77.52879,CS-GKW Layout
38376,12.91961,77.64455,HSRDPOT
36019,12.98839,77.53390,Con5
38386,13.04969,77.75559,BDGRC
38387,13.04875,77.75834,BDGRC
38388,13.04624,77.75078,bdgr
38068,13.19956,77.68225,Cargo Village
34722,12.93913,77.44806,Sulikere
39672,13.07990,77.56223,Sri Kalika Durgaparameshwari Vidyaranyapura
37875,12.91743,77.57329,Banashankari bus station  - Karnataka Bank ATM
36351,12.96464,77.53225,Subbanna Garden
23462,12.87463,77.57658,Vaddarapalya JP Nagara 8th Phase
38008,13.02628,77.56188,CS-Shani Mahatma Temple Diwanarapalya
38371,12.96352,77.57982,MKT
38384,13.19454,77.69676,KIA
23842,12.73138,77.70642,Chikka Hagade Gate
38373,13.21308,77.55444,YAPB Toll (Volvo)
20817,13.04127,77.58942,Hebbala
39247,12.90381,77.45089,BMTC Central Work Shop-3 Challaghatta
22291,12.95387,77.57992,Minerva Circle
34613,13.22683,77.62534,Singarahalli
36020,12.96314,77.57639,KMT
35520,12.72807,77.64800,Aladamara Chikkanahalli Cross
38395,13.26300,77.76564,Aliyuru
32066,12.80605,77.78330,Bidaraguppe
34414,13.10573,77.38811,Renuka Nagara
36021,12.96027,77.57470,KMT1
36097,13.18403,77.51922,KKL
23341,13.01178,77.59326,Câ€Œ Q A L
39673,13.10895,77.56542,Sri Kashi Vishwanatha Temple Atturu
38392,12.96826,77.65147,Miranda School
34521,12.92905,77.50119,Shanthi Dhama
38393,13.26845,77.80071,Dharmapura
24873,12.92089,77.73638,Gunjuru
36352,12.96486,77.53038,Vinayaka Layout
26736,12.93913,77.44810,Sulikere
38070,13.19945,77.69561,DHFL
20773,12.84717,77.67049,Electronic City 378
21714,13.04174,77.74453,Bandapura Gate
31809,12.91300,77.75308,Thippasandra
39044,12.68518,77.69714,Singasandra Koli Farm
39248,13.07856,77.44625,BMTC Central Work Shop-4 Dasanapura
38396,13.27744,77.75845,Chatra (Yeliyuru Gate)
38394,13.26839,77.80073,Dharmapura
28021,13.10569,77.38815,Renuka Nagara
23324,13.00804,77.55431,Vivekananda College
39674,13.09801,77.59086,Sri Srinivasa Temple NES
38010,12.97086,77.59420,CS-SJS CBSE Gate-2
27441,12.93296,77.21401,Neshepalya
36353,13.00867,77.52666,CS-Laggere Bridge
23991,12.84697,77.67070,Electronic City 378
38416,12.91054,77.58630,RV Dental College
20664,12.94872,77.53583,BHEL
24098,13.06672,77.63807,Shirdi Sai Nagara
36098,13.15816,77.52391,Linganahalli Gate
36252,12.92845,77.58466,CS-Jayanagara TTMC
39716,12.89536,77.71354,KWP2
35955,13.02209,77.63469,Sir M Visvesvaraya Terminal
20903,13.02654,77.63688,Kalyananagara
34148,12.93294,77.21405,Neshepalya
29485,13.08482,77.46553,Aluru
38398,12.89341,77.53817,TRHL
38399,12.97668,77.47869,BDGD
38397,13.27743,77.75846,Chatra (Yeliyuru Gate)
22730,12.95178,77.59919,CWS Shanthinagara
36253,12.94080,77.54305,CS-People Tree Hospital Girinagara
38413,13.19680,77.70586,KIA12
38011,13.02608,77.72051,CS-Medahalli
38415,13.07571,77.47285,KDRG
35511,13.08487,77.46561,Aluru
38402,13.19853,77.70741,KIA
32136,12.88668,77.60697,BTS Layout Arakere
38012,12.90732,77.40338,CS-Kethohalli
38073,12.87635,77.59580,Royal Meenakshi Mall (Parking)
36254,13.00755,77.64093,Subbayyanapalya/Ayyappa Temple
39717,12.89534,77.71338,KWP3
38417,13.19873,77.71350,KIA Terminal 2
38463,12.69643,77.70630,THALI
38400,13.19811,77.70542,KIA1
38401,13.19833,77.70548,KIA
38418,12.88818,77.57826,JP Nagara 7th Phase (Brigade Gardenia)
37325,12.92218,77.53451,Sapthagiri Badavane
36255,13.01441,77.65102,Banasawadi
38403,13.19831,77.70931,KIA
38013,12.90373,77.70265,CRG1
21466,12.79973,77.39107,Bidadi Railway Station
22830,12.90549,77.64128,Yellukunte Govt School
38419,12.98863,77.71150,Hoodi Metro Station
38421,12.98800,77.70984,HODI
38429,13.10280,77.53692,JK Basavanna Nagara
36100,12.97545,77.57553,KBS
38430,12.99272,77.71113,HOD1
36023,13.01801,77.55710,YTTMC
39249,12.87806,77.55546,NRNGR
32177,13.15014,77.40961,Bylanjaneya Swamy Temple Gollahalli
36438,13.08470,77.46541,CS-Aluru
38390,12.93568,77.44324,Balaji Badavane Sulikere
37326,12.92220,77.53457,Sapthagiri Badavane
32229,13.21788,77.45816,Channadevi Agrahara
36101,13.23141,77.60744,Dyavarahalli Cross
28344,12.92844,77.49061,Shivanahalli
38014,12.89447,77.70236,CRG2
38404,13.19844,77.71152,KIA
36256,12.83605,77.67934,HSKRG
38831,12.91265,77.50051,BEML Layout Mylasandra 7th Stage
38422,12.98893,77.71131,HODM
36026,12.96469,77.58597,CORP
38431,12.99272,77.71113,HOD1
23246,13.01000,77.65760,B Channasandra
28832,13.20304,77.57638,Maragondanahalli
39250,12.87444,77.55228,NRS1
28176,13.13186,77.64740,Sathanur
22241,13.06580,77.45363,Makali
20646,12.95005,77.50086,BUC ADM Block
23284,12.97008,77.49140,Balavikas School Gidadakonenahalli
38015,12.91448,77.46207,CS-BDA Flats Kommaghatta
37610,13.18351,77.67959,Beguru
22727,12.92830,77.55650,Channammanakere Achukattu
25853,12.79408,77.67013,Hennagara Dinne
31507,12.93322,77.21639,Uduvegere
38405,13.19983,77.71219,KIA
28614,12.78938,77.66007,Mahadeshwara Badavane
36257,12.83601,77.67917,HSKRG-1
38423,12.98893,77.71131,HODM
34473,12.90639,77.57373,Sarakki Signal
38074,13.15024,77.68509,HNH
32680,12.99275,77.41865,Giddenahalli
29254,13.19894,77.40237,Nagenahalli
37886,12.95422,77.59278,Shanthinagara - Kerala State Bus Booking Counter
39188,12.88668,77.45120,RMHC2
35268,13.06636,77.64067,K Narayanapura Main Bus Stand
36102,13.19874,77.57528,SDH
38016,12.87648,77.59532,RMMB
22189,12.88614,77.56654,Konanakunte
38424,12.98893,77.71131,HODM
36258,13.00337,77.60352,CS-Chinnappa Garden
22618,13.09416,77.40559,Weavers Colony Nelamangala
34949,12.93318,77.21641,Uduvegere
38434,12.69539,77.69933,Hompalaghatta
38439,12.79512,77.32450,Lakkasandra
29616,12.94436,77.65279,B Nagasandra
38408,13.19952,77.71538,KIA7
38425,12.99012,77.71347,HOD
39513,12.82026,77.66052,Smondo 3 Apartment
37887,12.95417,77.59275,Shanthinagara bus stand - Student Pass Counter
38407,13.19999,77.71351,KIA6
39244,12.88490,77.44981,ACP1
36359,13.06366,77.50510,CS-Bone Mill
36728,12.88735,77.64126,Dayanandasagara University Kudlu Gate
38441,12.89287,77.47122,DDBL
36103,13.19884,77.57533,SDH1
35874,12.99853,77.55700,Kuvempu Road
38442,12.97397,77.52229,ULA
38443,12.97397,77.52229,ULA
38447,12.97444,77.53814,VJN
38448,12.97444,77.53814,VJN
38450,12.92795,77.51116,RRT
38451,12.96378,77.47984,ULA1
36526,12.90949,77.56573,CS-Dayananda Sagar College Banashankari
32342,13.18312,77.53915,Chokkanahalli
32161,12.89185,77.37630,Byalalu
24575,12.91507,77.55198,Chikkallasandra
24535,13.09284,77.31818,Chikka Puttaiahnapalya
38444,12.97397,77.52229,ULA
38018,12.97752,77.48788,VNDM
38426,12.99163,77.71536,HOD
38449,12.92633,77.51434,Pattanagere Jayanna Circle
38435,12.69543,77.69926,Hompalaghatta
38452,13.01919,77.65575,HNRC
35312,12.89206,77.61172,Vijaya Bank Layout Petrol Bunk
36104,13.19880,77.57531,SDH3
38409,13.19725,77.71351,KIA8
25662,12.79826,77.55819,Hakki Pikki Colony Bannerughatta
21679,12.87283,77.56661,Avalahalli
34285,12.88110,77.47147,Provident Sunworth Apartment
38019,12.97995,77.48873,VNDM
23717,12.84498,77.68094,Electronic City East Phase-II
38410,13.19648,77.71485,KIA9
38445,12.97513,77.52318,ULA
38427,12.99048,77.71397,HOD
33872,12.78742,77.66634,Masthenahalli
38453,13.01919,77.65575,HNRC
22389,12.97857,77.64080,Indiranagara Police Station/KFC
38473,12.95368,77.59143,SNBS
31940,13.27904,77.62536,Chapparadakallu
20995,12.99593,77.55068,Manjunatha Nagara
27752,13.07920,77.73702,Premium Farm Mandur
28846,12.99605,77.53071,Kamalanagara Market
28258,12.99472,77.52677,Shankarnagh Bus Stand
33256,13.14903,77.50504,Kalenahalli Gate
38020,12.98149,77.49044,VNDM
38454,12.99059,77.59596,Bhagwan Mahaveer Jain Hospital
20774,12.98256,77.69301,EMC2
38428,12.99052,77.71397,HOD
38446,12.97513,77.52318,ULA
36106,12.96143,77.57774,KMT2
38455,12.98437,77.59287,Raj Bhavan
38456,12.98581,77.59327,AARD
32186,13.20178,77.52289,Byrapura
37327,12.92530,77.55007,CS-Kathriguppe
32105,13.01994,77.44841,BMTC Training Centre
22387,12.97810,77.64094,Indiranagara Police Station/KFC
38412,13.19773,77.71154,KIA11
33220,13.24328,77.45556,Kadanuru
38459,12.98068,77.59831,Cubbon Park Metro Station
38438,12.66408,77.70187,Menashiganahalli
33222,13.24669,77.46079,Kadanuru Katte
38034,12.85560,77.57056,Anjanapura 10th  Block
38457,12.98581,77.59327,AARD
36107,12.96144,77.57772,KMT C
33761,12.80662,77.60460,Malenallasandra
37328,12.84976,77.66304,CS-Infosys Parking Lot
22817,12.89609,77.57029,Yalachenahalli Metro Station
30812,13.06799,77.36010,Yantaganahalli Toll
38460,12.98231,77.59891,BMVR RD
20926,12.91406,77.48645,Kengeri Bus Station
36365,12.95956,77.64981,CS-Manipal Hospital
36033,13.01765,77.55658,YTTMC
31568,13.13068,77.36841,Veerananjipura
39719,13.11491,77.41109,BTNGR2
37037,12.98341,77.60267,Shivajinagara Bus Station-Public Toilet-2
32953,12.79294,77.67845,Hosahalli
36366,12.97820,77.63490,CS-Indiranagara Metro Station
38461,12.98231,77.59891,BMVR RD
36218,12.97934,77.57110,KBS5
37329,12.98836,77.90083,Huralagere
38479,12.78976,77.31337,Yale Doddy
37193,12.97269,77.67765,Malleshpalya New Bus Station(Vignananagar)
38024,12.98265,77.49109,VNDM
38075,13.21935,77.93380,ARH
31030,13.19163,77.39895,Kenjiganahalli
37330,12.98833,77.90090,Huralagere
38478,12.87568,77.61780,CS-DLF Home Town
38496,12.80981,77.28479,Thimmasandra Gate
38499,12.82672,77.31215,Thirumalapura
38501,12.99062,77.46866,KCHL
38502,12.90643,77.58570,DTL
38495,12.80147,77.30072,Yoga Gangothri Trust
37331,12.98777,77.88168,AL-Agro Factory
28100,12.76873,77.48298,Sadhanapalya
33313,12.72364,77.44622,Kanchugaranahalli
38464,12.69643,77.70630,THALI
37893,13.02607,77.63701,KLN
38025,12.97712,77.48753,VDNM
21516,12.98913,77.47157,Gollarahatti
38474,12.95368,77.59143,SNBS
38076,13.21925,77.93355,ALH
38497,12.79897,77.29167,Bejjarakatte
38503,12.95431,77.43281,Hakki Pikki Colony
38480,12.78694,77.31071,Burumarana Doddy
39676,13.28263,77.72300,Sri Shiradi Saibaba Temple Avathi
38465,12.69601,77.70666,TALI
35445,12.74341,77.46301,Aralalusandra Cross
37332,12.98697,77.88059,AL-Agro Factory
37894,13.02606,77.63708,KLN1
38475,12.95203,77.59083,SNBS
38476,12.95203,77.59083,SNBS
32331,12.82741,77.45962,Chinnakurchi
38077,13.21915,77.93305,ALH1
38504,12.95424,77.43276,Hakki Pikki Colony
38481,12.78683,77.30590,Harisandra Cross
38026,12.97677,77.58922,MS Building
36369,12.97932,77.80271,CS-Bhodhana Hosahalli
21205,12.98946,77.50638,Sunkadakatte
39720,13.11553,77.41107,DDPLYA
38078,13.03293,77.53336,Peenya Metro Station
32776,12.79345,77.48382,Gudipalya
32778,12.79339,77.48377,Gudipalya
22194,12.95902,77.65946,Konena Agrahara
38466,12.69601,77.70666,TALI
38482,12.78652,77.30485,Harisandra
38027,13.05945,77.46368,TCI
38512,12.89508,77.58628,Brigade Palm Springs
38506,12.89004,77.58179,RBI Layout
36039,12.97472,77.57086,KBS1
38505,12.89685,77.58588,Puttenahalli
38511,12.89688,77.58613,Puttenahalli
38513,12.89004,77.58191,RBI Layout
38514,12.88821,77.58184,Capital School
38515,12.88831,77.58192,RBI
36111,13.28041,77.55168,DBPR1
38516,13.10706,77.51510,DAM
38517,13.10706,77.51510,DAM
38520,13.10921,77.51532,DAME
38521,13.10921,77.51532,DAME
38522,13.14940,77.41313,RLGH
38523,13.14940,77.41313,RLGH
38524,13.14403,77.41243,GLH
38830,12.91274,77.50063,BEML Layout Mylasandra 7th Stage
39693,12.91696,77.59308,Ragigudda Temple FLY Over
23430,12.99053,77.48753,Herohalli Sunkadakatte
38467,12.69582,77.69559,HPLG
38468,12.69582,77.69559,HPLG
38079,13.03290,77.53377,PMS
38483,12.78319,77.30850,Thimmegowdana Doddy
38507,12.89217,77.58329,Brigade Millenium
36371,13.07317,77.24471,Solur Hassan Road
38518,13.10515,77.51567,DAM
38519,13.10515,77.51567,DAM
38525,13.14403,77.41243,GLH
36013,13.04884,77.45306,Ganapathi Layout (JK Store)
39677,13.24401,77.71725,Jain Temple Devanahalli
38469,12.69582,77.69559,HPLG
38470,12.69582,77.69559,HPLG
39495,12.93068,77.49937,Chandramouleshwara Swamy Temple
39494,12.93068,77.49932,Chandramouleshwara Swamy Temple
38029,13.06083,77.46135,TCI
38484,12.79432,77.31782,Kumbara Doddy
38080,13.03789,77.53718,HMTM
20965,12.94318,77.59735,Lakkasandra
38508,12.89299,77.58640,BOB Colony
38526,13.14640,77.41519,GHL
38527,13.14640,77.41519,GHL
32681,12.99281,77.41863,Giddenahalli
38030,13.05871,77.46657,TCI1
38471,12.69576,77.69552,VNSH
38081,13.04216,77.53942,HMTM
38485,12.79945,77.31888,Sugganahalli
38509,12.89514,77.58613,Brigade Palm Springs
38528,13.14740,77.41512,RGK
36226,12.95370,77.91509,Seetanayakanahalli Gate Malur Road
23867,12.87463,77.59469,Meenakshi Temple
38530,13.14839,77.41409,WGK
23742,12.82800,77.56254,Shanubhoganahalli 1st Cross
22684,12.97816,77.50434,3rd Main Road Annapoorneshwarinagara
38031,13.05853,77.46642,TCI1
38082,13.04405,77.53972,HMTM1
30986,13.22094,77.64473,Ilathore
38472,12.69576,77.69552,VNSH
36374,13.06514,77.25698,Solur Railway Station
38486,12.80090,77.31466,Sugganahalli Circle
38510,12.90057,77.58582,Inchara Hotel/Zaitoon
38529,13.14839,77.41409,WGK
32954,12.79309,77.67850,Hosahalli
38532,12.95964,77.70114,MRHB
20618,13.02274,77.64721,Babusabpalya
36042,12.80329,77.57737,BNP
34190,12.84384,77.55114,Onti Mane
34617,12.82223,77.57723,Sipgere Gate
34964,13.17427,77.39488,Thyagadahalli
36115,13.17673,77.53971,SBH1
35888,12.88479,77.55264,Doddakallasandra
38534,13.23508,77.75409,BMNHCR
24694,12.88558,77.57487,Chunchaghatta
38487,12.80413,77.31467,Bommachannahalli
36375,13.06340,77.27460,Beerawara
39452,13.17650,77.45281,Beraiyanapalya
37898,12.95933,77.65420,WTNL
38083,13.03822,77.53769,HMT1
38533,12.95971,77.70138,MRHB1
38535,13.23492,77.75453,BMNC
35288,12.91967,77.61291,Gangothri Circle
25330,12.91965,77.61299,Gangothri Circle
31248,12.87655,77.57720,Kothanuru Hari Nagara
36043,12.80150,77.57683,BNP2
36116,12.95833,77.51886,NBC
35889,12.87746,77.54467,Vajarahalli Metro Station
38488,12.82096,77.32236,Katamana Doddy
36117,12.95285,77.52009,NBC1
38536,13.23488,77.75459,Dummy
36376,13.06362,77.27445,Beerawara
37899,12.95935,77.65421,WTMLA
38490,12.84138,77.32769,Ramapura
39385,13.09717,77.31906,Chikka Puttaiahnapalya Cross
38084,13.03981,77.53841,HMTM
22510,12.93859,77.63265,Shrinivagilu Ejipura
35727,12.90143,77.47526,CS-Kengeri Work Shop
37263,12.98901,77.44915,Kadabagere Cross
22370,12.99432,77.64414,Old Baiyappanahalli
36820,13.01982,77.60750,Kaval Byrasandra-Drinking Water
37900,12.95936,77.65418,WTL
38489,12.83013,77.32471,Kaggalahalli
38537,13.07334,77.43938,Ravuthanahalli Cross
38555,12.88095,77.35503,Chikkanahalli1
27519,12.93631,77.43851,Nursery Maragondanahalli
38556,13.02781,77.65252,SVMS
38550,12.80333,77.38793,KHBC
38557,12.87825,77.44551,KMBLGD
39694,12.91685,77.59340,Ragigudda Temple FLY Over
39331,13.07499,77.50167,Yogi Vernana Reddy Circle
38563,13.00429,77.61646,MQS
36077,12.97959,77.57117,KBS Dummy 4
22045,12.93293,77.54540,Hoskerehalli Cross
22049,13.07531,77.78639,Hosakote Flower Market
22340,13.18514,77.75974,Nallur Cross
36045,12.94545,77.59671,WLG10
28028,13.26714,77.49761,RH Farm
37901,12.95846,77.66601,HALMG
34010,12.99168,77.44264,Mutturayanaswamy Temple
36119,13.01399,77.56570,IISC
33442,13.22094,77.64475,Ilathore
38086,13.00339,77.68246,ITI
38553,12.79666,77.38385,BDD
38558,12.87849,77.44532,KBLD
34238,12.95873,77.38934,Peddanapalya
38491,12.85249,77.33865,Gadigayyana Doddy
38087,13.00400,77.68351,ITI
38564,13.00455,77.61587,MQS
36046,12.96461,77.59674,RMC
38577,13.20438,77.26522,Hosahalli Gate (Rathnam Hotel)
27957,13.11974,77.41441,Doddipalya
38492,12.77908,77.33508,Lakkayyana Doddy
37903,12.90790,77.57077,MINAZ
38088,12.97293,77.70916,BTP
22265,12.94527,77.49540,Mariyappanapalya
21200,12.98246,77.56208,Sujatha Talkies
30443,13.22469,77.66496,Doddappanahalli
38565,13.00298,77.61522,MQS
38568,12.79695,77.38462,BDD2
38573,13.07990,77.42487,Arishinakunte  Toll
36047,12.96229,77.59347,SBCL
37851,13.04880,77.45279,Ganapathi Layout(JK Store)
20855,12.98408,77.59827,Indian Express
38576,13.19210,77.64790,SADH
38583,12.90625,77.58509,JPN
38585,12.98699,77.57883,SHNND
38586,12.92179,77.58018,R V Metro Station
38590,12.98422,77.59876,SBS8
38575,12.98458,77.60069,SBS9
24532,13.09693,77.89536,Chikka Nallala
37904,12.90797,77.57082,MINAZ
38089,12.97318,77.70933,BTP
38566,13.00237,77.61496,MQS
33172,13.22467,77.66510,Doddappanahalli
38493,12.79514,77.32450,Lakkasandra
38578,13.20446,77.26540,Hosahalli Gate (Rathnam Hotel)
38587,12.92178,77.58030,R V Metro Station
38584,12.98120,77.59722,Cubbon Park Metro Station
34643,12.96417,77.20795,Someshwara Colony Magadi
38569,12.78711,77.37566,Kariyappana Doddy Devastana
38589,12.92957,77.58012,Jayanagara Metro Station
38591,12.92878,77.56624,TRN1
39721,13.11681,77.41204,BTNGERE
39678,13.20592,77.63012,Sri Lakshmi Bhoo Varaha Swami Temple
38090,12.97304,77.70926,BTP
37226,13.08694,77.59386,ALSG
20776,12.99041,77.55256,ESI Hospital Rajajinagara
36822,13.01976,77.60716,Kaval Byrasandra-Bengaluru One
38579,13.19044,77.27926,Gundenahalli
37905,12.90792,77.57087,MINAZ1
34747,13.23918,77.73522,T Agrahara
22537,13.05924,77.46527,TCI
36827,13.01987,77.60770,Kaval Byrasandra-Public Toilet
36382,12.95499,77.59616,CS-Depot-03
38494,12.79661,77.38427,BDD
38592,12.94765,77.62052,KPWD Quaters
38593,12.94253,77.62266,NGV
38598,12.94503,77.62307,NGV-2
38570,12.78483,77.37826,Kariyappana Doddy
36124,12.91985,77.58356,JTTMC
36383,13.04524,77.50703,8thm
24157,12.83621,77.62502,Jalli Machine
39549,12.77689,77.68143,Hinnakki Village
37906,12.90658,77.57314,SRKJ
33439,13.22314,77.65463,Kempathimmanahalli
25254,13.18817,77.61756,Gadenahalli
33927,13.21352,77.63473,Metrocorp Nirvana Layout
21599,12.98401,77.44389,Seegehalli Gate
30744,13.12951,77.38466,Kanegowdanahalli
35983,13.03433,77.54117,501C8
36210,12.93824,77.53330,VBN1
23681,12.92921,77.56441,Indira Nursing Home
29639,12.92790,77.21035,Balekatte
38091,12.81910,77.68885,BMS
38580,13.19058,77.27939,Gundenahalli
38594,12.94256,77.62277,NGVC
38599,12.94885,77.62051,NGV3
36384,12.88205,77.56540,CS-Beereshwaranagara
39722,13.11428,77.41015,Bethanagere
34750,13.06981,77.59654,Talakaveri New Layout GKVK
20904,13.02640,77.63642,Kalyananagara
33636,13.00084,77.53588,Kurubarahalli
21007,12.99858,77.55574,Mariyappanapalya
21008,12.99862,77.55652,Mariyappanapalya
21480,12.95914,77.30874,Centre For Learning School
25681,13.27752,77.52158,Alahalli
37907,12.82227,77.68564,BMS
36125,12.91991,77.58151,JTTMC
38572,12.76542,77.32077,Madapura
38092,12.81928,77.68911,BMS1
21005,12.91688,77.58858,Marenahalli (Marenahalli Metro Station)
38595,12.89596,77.70410,Depot-42 Kodathi
38601,12.90242,77.70569,CRM 2
38581,13.01772,77.65219,Indira Canteen (DESI MASALA)
34741,12.99801,77.48940,Syndicate Bank Layout
21706,12.99204,77.60397,Bamboo Bazaar
37908,12.82426,77.68385,BMS
34767,13.12849,77.91557,Tavarekere Volvo
23996,12.84226,77.61863,Mylasandra Road Junction
32651,13.01572,77.48414,Garudappa Circle Thigalarapalya
35812,12.89690,77.46185,RR Medical College
35306,12.97506,77.62010,Gurudwara/Lido
38603,12.95679,77.74555,Varthur Kodi
38596,12.94256,77.62277,NGVC
38093,12.82092,77.68747,BMS
38602,12.90247,77.70581,CRM 3
38604,12.98427,77.58221,RCRD
38582,13.01759,77.65205,Indira Canteen (DESI MASALA)
31921,12.98441,77.55398,Bashyam Circle Rajajinagara
36386,13.03598,77.51300,Nagasandra Cross
20937,12.98787,77.51509,Kottigepalya
25272,12.95730,77.38166,Ganakal
33440,13.22204,77.65104,Kempathimmanahalli Cross
35900,12.96189,77.53359,Attiguppe Metro Station
37909,12.82436,77.68397,BMS1
36213,12.87111,77.59317,LYOLA
32297,13.27744,77.51903,Chikka Tumkur Lake
36060,13.24327,77.38658,Ambalagere
38597,12.94376,77.62394,NGV2
38605,12.98427,77.58221,RCRD
33311,13.28773,77.53915,Kanakadasa Circle
35045,13.02868,77.59328,Depot-14 RT Nagara
38616,12.99618,77.49603,Prasanna Layout
25655,13.36837,77.54401,Hadohalli
23771,12.84347,77.61341,Mylasandra Cross
39670,12.92378,77.64777,Sri Jagannatha Temple Agara
35901,12.97068,77.53728,Vijayanagara Metro Station
21987,12.78847,77.73576,Guddahatti Gate
35774,12.91212,77.62589,Roopena Agrahara FLY
37910,12.81893,77.68939,Bommasandra
36128,12.98287,77.60331,SBS
31818,13.23190,77.65594,Uganawadi Cross
25883,12.77784,77.68057,Hinnakki
32630,13.02570,77.45491,Ganesha Circle Vaddarahalli
33441,13.22207,77.65103,Kempathimmanahalli Cross
38606,12.98451,77.58210,RCR
38615,13.02217,77.64744,HRBR 1st Stage
20846,12.96893,77.61529,Hosmat Hospital (DIG Office)
36388,12.91824,77.55580,CS-Kidney Foundation
36276,12.93934,77.69570,Kadu bisanahalli
22196,13.06182,77.64893,Kothanuru
27439,12.79603,77.72821,Neraluru
32310,13.21474,77.58065,Chikkana Hosahalli
35541,12.86540,77.59836,AECS Dental College
35839,13.04257,77.61369,Veerannapalya
26485,13.22887,77.62846,Singarahalli Cross
38607,12.98469,77.58203,RCRD1
21636,12.93090,77.57878,Jayanagar 6th block
38613,13.01818,77.64734,Ganesh Mantapa
37911,12.98406,77.66094,CS-LRDE
38620,12.90763,77.47635,Kengeri Metro Station
38622,12.89155,77.47164,Doddabele Colony
38625,13.01029,77.53675,NDL3
24671,13.21449,77.62801,Chowdanahalli
36320,12.98076,77.59798,Cubbon Park Metro Station
37352,13.02881,77.53970,GORUGUNTEPALYA BENGALURU
36326,12.97645,77.72652,WFTTMC
36073,12.97731,77.57424,KBS Dummy 2
37250,13.09803,77.39384,NLM2
36130,12.91719,77.58008,SNGC
36225,12.93954,77.91152,Cloride Metal
32333,13.00310,77.60353,Chinnappa Garden
39675,13.30558,77.70968,Sri Thimmarayaswamy Temple Avathi
37912,12.92052,77.66566,CS-Jn of Sarjapura Road Ibbluru
34145,13.22900,77.62985,Neragenahalli Cross
38608,12.98469,77.58203,RCRD1
36327,13.08290,77.55072,Depot-45 Gate
38626,13.01038,77.53719,NDL3
34809,12.95205,77.22752,Hombalamma Kere
38633,12.89509,77.70550,CS-Depot-42 Gate
39695,12.91663,77.60933,BTM Layout 16th Main FLY Over
34147,12.79603,77.72838,Neraluru
38609,12.98469,77.58203,RCRD1
37913,12.94958,77.57994,CS-Lalbagh West Gate
38627,13.00951,77.53652,NDL4
35904,12.97359,77.58293,Sir M Vishweshwarayya Metro Station
34960,13.35293,77.53895,Tirumagondanahalli Ghati Subramanya
31496,13.35289,77.53889,Tirumagondanahalli Ghati Subramanya
22250,13.13515,77.72619,Manchappanahalli Cross
38635,13.15159,77.72504,Gollahalli
36228,12.96212,77.89883,Hulimangala Hosakote
37914,12.94016,77.57693,CS-AMC (Near Krishna Rao Park)
33331,13.22173,77.66990,Kannamangalapalya
20860,13.01160,77.55103,Iskcon Temple
24637,12.85269,77.71173,Chinthala Madivala
38636,13.15159,77.72524,Gollahalli
36132,12.90536,77.60181,JPN-1
35623,12.92788,77.21030,Balekatte
35828,13.02049,77.44772,BMTC Training Centre
35455,13.27266,77.55205,Aparel Park
31042,12.74251,77.52744,Shanimahathma Temple
30735,13.28770,77.53917,Kanakadasa Circle
37915,12.91123,77.57453,CS-JP Nagara 1st Phase
38637,13.02646,77.72036,Medahalli
25395,12.97371,77.48918,Gidadakonenahalli
33796,12.91253,77.20473,Managal
25379,13.00592,77.54107,Geleyara Balaga Extension Rajajinagara
38097,12.90400,77.53090,National Public School Uttarahalli
35134,12.84174,77.58863,Koli Farm Gate
21768,12.98827,77.73061,Big Bazzar ITPL
37916,12.87707,77.60231,CS-Hulimavu
37260,13.03065,77.85785,GVP2
37261,13.03061,77.85820,GVP3
23763,12.94915,77.56258,Gavi Gangadareshwara Temple
38638,13.17350,77.70630,Bande Kodigehalli palya
39111,12.87820,77.51661,Chikkegowdanapalya Junction
36338,13.21498,77.36518,Vadakunte
21635,12.93081,77.57775,Jayanagar 6th block
39696,12.91653,77.60957,BTM Layout 16th Main FLY Over
26552,12.87766,77.49660,Sompura
32761,13.06317,77.73981,Grandwell
32149,12.80452,77.56044,Boothanahalli
37917,12.88885,77.61571,CS-Devarachikkanahalli
22314,12.97738,77.75122,Munish Singh Hospital
20670,12.98823,77.73197,Big Bazzar ITPL
38639,13.17346,77.70610,Bande Kodigehalli palya
38098,13.09720,77.59240,NES Office
36342,12.78010,77.63448,Depot-27 Gate
24385,12.99775,77.75781,Central Bank Kadugodi
35811,12.95216,77.22726,Hombalamma Kere
38650,13.26996,77.65721,VSPR
38571,12.77783,77.37826,Nithyananda Ashrama
21586,12.96761,77.38892,Peddanapalya Cross
22775,12.95897,77.52733,Depot-17 Chandra Layout
21107,12.91701,77.59303,Ragigudda Temple
32090,13.00884,77.81304,Bisanahalli
36091,13.17298,77.56432,RJK Dummy
33332,13.22176,77.67001,Kannamangalapalya
38099,13.03913,77.58952,CS-Hebbala
23513,12.74596,77.52340,Girigowdana Doddy
36243,13.01824,77.55877,YPRC-1
38640,13.09466,77.69319,DGP
23034,12.82033,77.73652,Ali Bommasandra
33035,13.02772,77.49370,Indiranagara
35861,12.98258,77.56812,CS-Okalipuram
38643,13.05598,77.59791,Amruthanagara Hebbala
36247,13.01751,77.55979,YTTMC1
36469,13.08178,77.54809,MS Palya
32688,12.88100,77.40090,Giriyappanapalya
37918,12.99165,77.60694,BBZR
36345,12.95355,77.59224,SNBS2
36137,12.95711,77.56742,CMRPT
39679,12.96245,77.53377,Attiguppe Metro Station
21896,12.96342,77.64169,Dhoopanahalli
38646,12.99771,77.71725,APPS
36017,12.98861,77.53344,Con3
38651,13.26410,77.68237,SVKHG
25424,12.88007,77.40384,Giriyappanapalya Cross
36092,13.20170,77.52364,BYPWP1
31934,13.06583,77.64305,BDS Nagara
38644,12.99702,77.71729,SDM
38647,13.27922,77.62539,CPRL
38652,12.97987,77.56431,SJPT
32904,13.21780,77.60471,Hegganahalli Gate
38655,12.81690,77.69891,Bommasandra Village
36012,13.04789,77.45606,Ganapathi Layout 1st Stage(LDVG)
38659,12.99616,77.72010,KDGH
38660,12.99599,77.72610,KDGH1
38661,13.23694,77.82405,Ambalipura
38663,13.08450,77.39713,MLP
20739,12.95140,77.53724,Deepanjalinagara
23035,12.82032,77.73644,Ali Bommasandra
24212,12.94332,77.75098,Sorahunse Gate
20656,12.99428,77.66330,Benniganahalli
31505,13.17702,77.40010,Udichikkanahalli
22735,12.94197,77.48357,Sonnenahalli Bridge
38102,12.98565,77.47585,GOLL
38645,12.99882,77.71708,APP
37919,12.88327,77.75241,Dommasandra Circle
36018,12.98883,77.53353,Con4
36093,13.20097,77.52370,BYPC1
36246,13.01306,77.64934,Steel Factory Banasawadi
36347,12.77903,77.64342,Jigani APC CIrcle
33956,13.08181,77.54820,MS Palya
23634,12.79444,77.50537,Pattareddypalya
39384,13.09715,77.31905,Chikka Puttaiahnapalya Cross
36139,12.96354,77.57895,KMT
38648,13.27918,77.62556,CPRL1
36011,13.04795,77.45596,Ganapathi Layout 1st Stage(LDVG)
38662,13.23693,77.82407,Ambalipura
36140,12.95184,77.59079,Lalbagh Hopcoms
37920,12.88330,77.75237,Dommasandra Circle
23652,12.95532,77.59600,Depot-03 Shanthinagara
32059,12.94262,77.48728,Bhuvaneshwari Nagara 2nd Stage
38103,12.98652,77.47182,GLT
25553,13.06328,77.73988,Grandwell
21721,12.94168,77.57396,Basavanagudi Police Station
38657,12.81707,77.69366,Govt Primary School Bommasandra
35212,12.98163,77.60822,Commercial Street
35855,12.73459,77.57229,Bannigere Parking_Test1
37921,13.02014,77.55559,Yeshawanthapura Market
22355,12.79217,77.72813,Neraluru Gate
36095,13.18401,77.51923,KKL1
20761,12.97565,77.69700,Dodda Nekkundi Bridge/Rainbow Hospital
36141,12.95182,77.59056,Lalbagh Hopcoms
38658,12.82583,77.68271,Hebbagodi
32282,12.86005,77.69493,Chikka Nagamangala
34951,13.17706,77.40012,Udichikkanahalli
38666,13.30723,77.73054,Bullahalli
36401,12.99289,77.52914,CS-BEML Layout JVS
38669,12.94987,77.57494,NTC
20728,12.96480,77.58778,Corporation
21772,12.98350,77.64067,Binnamangala
37922,12.88338,77.54875,RGHG
22359,13.01433,77.65818,New Baldwin School
39724,12.96896,77.81828,Obalapura Anjaneyaswamy Temple
25298,13.00868,77.54313,Ganesha Temple Mahalakshmi Layout
36142,12.95772,77.58212,JCRD
38672,13.02057,77.72096,Kurudu Sonnenahalli Cross
38673,13.02057,77.72094,Kurudu Sonnenahalli Cross
38674,13.01860,77.72009,Manjunatha Nagara Layout Cross
38675,13.01858,77.72011,Manjunatha Nagara Layout Cross
35228,12.83574,77.57207,Muneshwara Temple
38676,13.01670,77.72025,Priyanka Nagar Cross
39415,12.90687,77.52101,BEML5th
38677,13.01667,77.72019,Priyanka Nagar Cross
23871,12.90051,77.60090,Bilekahalli
38105,12.97659,77.66824,DSC HAL GM Palya
23084,13.05497,77.47936,Anchepalya
36096,13.18410,77.51918,KKL2
36143,12.95773,77.58210,JCRD1
21506,12.98701,77.55087,Dhobi Ghat Rajajinagara
38684,12.84252,77.64144,Podu Cross
38106,12.97664,77.66825,CS-DSC HAL GM Palya
36250,12.98658,77.73165,ITPL Back Gate Big Bazzar
38678,13.04901,77.59512,VVKT
36251,12.98630,77.73171,ITPL Back Gate Big Bazzar
38679,13.04976,77.59296,VVKS
38681,13.08775,77.56079,CBCK
38682,13.07562,77.56731,CBCK
38683,13.07668,77.56504,CBCK1
38687,12.99468,77.75775,KDG
21722,12.94160,77.57376,Basavanagudi Police Station
38671,12.80249,77.50881,Kaggalipura Junction
38668,13.31556,77.74810,Harohalli
20571,12.91644,77.60928,BTM Layout 16th Main
38689,13.26631,77.67604,BMW
38690,13.26621,77.67653,BMW
38691,13.11490,77.29879,MDKT
39725,12.83501,77.73475,MTNC
28331,12.94300,77.47660,Shivaji Hotel
35710,13.02021,77.50013,Depot-09 Peenya
35115,12.83574,77.57216,Muneshwara Temple
38688,12.99458,77.75773,KDG
20788,12.98071,77.55798,Gopalapura
38107,12.84177,77.64416,Neeladri Nagar Circle
21022,12.91682,77.60407,MICO Layout BTM
29555,13.20062,77.53930,Arakere Byrapura
36022,13.01817,77.55748,YTTMC
34821,13.07278,77.39370,Mallapura Cross
38685,12.84255,77.64159,Podu Cross
38692,13.11462,77.29854,MDLKK
33493,12.80077,77.68956,Kithiganahalli
23396,12.85975,77.79411,Abbaiah Circle Sarjapura
21867,12.86770,77.76709,Crystal Apartment Sarjapura Road
37926,12.94814,77.57360,NSLC
38108,12.84177,77.64417,CS-Neeladri Nagar
28839,13.05020,77.49252,Marison Factory
38693,13.11452,77.29829,MKTL
38696,13.01992,77.71999,MDH
38697,12.99494,77.65412,Karnataka High Court Staff Quarters
38049,12.97998,77.75162,Coffee Day Hope Farm
36687,12.88256,77.68964,Ahad Excellencia Apartment
36354,12.97569,77.56015,CS-Magadi Road 5th Cross
38695,13.17322,77.74122,Cohera
37927,12.99325,77.50117,SKTT
29530,13.23510,77.71302,Anjaneya Temple Devanahalli
38621,12.89157,77.47164,Doddabele Colony
37897,12.95653,77.89965,Hulimangala
38699,12.90880,77.63510,MGMP
31172,13.10386,77.60028,Kogilu Cross
32170,13.22421,77.71283,Bychapura
38702,12.99834,77.64108,SVMS
36024,13.01748,77.55682,YTTMC
39550,12.98301,77.57658,CS-KPTCL Office
38700,12.99531,77.53971,WTK
38694,13.14822,77.71096,QFB Hotel
23402,12.89593,77.82876,Thiruvaranga Gate
34979,12.74399,77.47896,Thokathimmana Doddy Cross
38623,13.18086,77.71474,Hunasuru Junction
38624,13.18090,77.71486,Hunasuru Junction
38705,13.15808,77.71563,KIADB
38706,13.37522,77.57194,Tubagere
36396,13.20065,77.25775,CS-Therelek Eng Pvt Limited Avverahalli
38714,13.32634,77.13306,TUMAKURU
38712,13.20408,77.88961,Haleyur
31094,12.80074,77.68961,Kithiganahalli
36099,13.22605,77.58408,Jalige
38701,12.99531,77.53983,WTKK
34610,13.14764,77.56530,Singanayakanahalli
38703,12.99751,77.64181,SVMS
38094,13.02419,77.44880,Sri Kamadhenu Kshetra
36355,12.88164,77.59627,Hulimavu Gate
38704,13.15789,77.71109,KHTL
35039,13.15116,77.55899,Yadiyurappa Nagara
38721,13.32286,77.68143,Thilagere
38713,13.20404,77.88953,Haleyur
36151,12.96494,77.57536,kmt
37930,12.89272,77.45817,ANCP
38112,12.97325,77.56639,Binny Mill ETA Garden
38538,13.07362,77.43959,Ravuthanahalli Cross
38708,13.37149,77.55778,S Nagenahalli Gate
38716,13.22846,77.24186,DHABASAPETE
23679,12.92270,77.56033,Devegowda Petrol Bunk
20981,12.97703,77.58580,Maharani College
37931,12.89051,77.45499,ANCP1
34352,13.19463,77.42307,Ramadevanahalli Cross
38113,12.97325,77.56642,CS-Binny Mill ETA Garden
38723,13.32262,77.68114,Thilagere
31662,13.15119,77.55896,Yadiyurappa Nagara
37932,12.95549,77.61591,NLSRG
38730,12.83175,77.36063,Kakaramanahalli Cross
36153,13.07076,77.78488,HSK1
27899,13.19465,77.42293,Ramadevanahalli Cross
36025,13.01736,77.55703,YTTMC
38727,12.95133,77.53712,D16
38728,12.95890,77.52689,D17
38828,12.83796,77.70286,IGNOU Singena Agrahara
38731,13.31184,77.54517,Doddaballapura Govt Hospital
38742,13.20017,77.89876,NNDG
38743,13.19993,77.89861,NNDH
38744,13.20006,77.89868,NNDG
38745,13.02398,77.64337,HRBR
21746,12.95325,77.56762,Bengaluru High School
34758,13.05340,77.57516,Tata Nagara Entrance
23418,12.85970,77.79409,Abbaiah Circle Sarjapura
37933,12.95707,77.61680,NLSRG1
24248,12.83937,77.69797,Sampige Nagara Gate
38733,13.13941,78.00287,NARASAPURA
38747,12.91041,77.58923,Venkateshwara Temple
20775,12.98239,77.69288,EMC2
33579,12.87651,77.57716,Kothanuru Hari Nagara
33957,13.08145,77.54831,MS Palya
20863,13.00532,77.68522,ITI Colony Gate
20789,13.02835,77.54123,Goraguntepalya
22251,13.13527,77.72547,Manchappanahalli Cross
34616,12.83768,77.71611,Singena Agrahara
38748,12.91031,77.58937,Venkateshwar Temple
22254,12.97493,77.61436,Manipal Centre
26230,12.91946,77.61567,Jai Bheema Nagara
37935,13.02348,77.64600,BBSP
38749,12.90596,77.60388,N S Palya Cross
31437,13.12416,77.77332,Thimmasandra Gate
36747,12.96186,77.68526,CS-HAL ARDC
37936,13.02451,77.64339,BBSP1
39110,12.87816,77.51649,Chikkegowdanapalya Junction
38750,12.90573,77.60391,N S Palya
38755,13.04518,77.57415,CS-Anjanamurty
35815,13.04756,77.59661,CS-Vidyaniketan School Hebbala
23417,12.86038,77.79881,Thindlu Gate
20689,12.91673,77.60713,BTM Layout Water Tank
23290,12.89568,77.19349,Balenahalli
38751,12.90995,77.61002,Chamundeshwari Temple
36259,12.91237,77.48540,Kengeri
38752,12.90995,77.60998,Chamundeshwari Temple
23273,12.89515,77.84536,Baguru Colony
37938,13.02759,77.63242,HNRCD10
20603,12.98115,77.57466,Ananda Rao Circle
38756,13.04511,77.57437,Anjanamurthy
20599,12.97853,77.54293,Agrahara Dasarahalli
30747,12.69590,77.58472,Kanivemadhapura Cross
37939,13.02757,77.63256,HNRD10
21778,13.06161,77.63334,Book Factory Thanisandra
38909,12.98826,77.61490,CS-Kendriya Vidyalaya Halasuru (MEGC)
38761,13.05503,77.54482,GGMC
23289,12.89571,77.19355,Balenahalli
36160,12.93295,77.58439,JBS3
38760,13.05494,77.54310,GGMC
38762,12.98497,77.54918,DBH1
38764,13.00392,77.63625,SMVRS
38766,13.00389,77.63630,SMVRS4
20572,12.91669,77.60912,BTM Layout 16th Main
23983,12.78653,77.70324,Iggluru
37940,13.02759,77.63245,HNR10
38739,13.10839,77.98685,Narasapura Industrial Area
22369,12.95623,77.82412,Obalapura Gate
38768,12.91556,77.72356,Krupanidhi College Gunjur Road
38763,12.98438,77.54912,DBH
38765,13.00395,77.63621,SMVRS3
38769,12.91559,77.72346,Krupanidhi College Gunjur Road
35816,13.11081,77.58004,CS-Puttenahalli
21929,13.00143,77.61865,East Railway Station
38118,13.03105,77.53588,GG Palya Toll
36162,12.92454,77.55400,D13
38740,13.00379,77.93845,MALUR
38778,12.86053,77.55945,Anjanapura 2nd Block Cross (LBSN)
30252,12.75238,77.70258,Byagadadenahalli
36748,12.96185,77.68527,HAL ARDC
38741,13.17313,77.74317,COR
22268,12.96176,77.52189,Maruthi Nagara
36163,12.92328,77.61891,MDVL
38776,12.94130,77.60255,Chandrappanagara
38775,12.94120,77.60247,Chandrappanagara
38771,12.91290,77.71304,Mount Carmel
32507,12.74697,77.68932,Dodda Hagade
37943,12.98624,77.73124,BBZRBG
38781,12.97203,77.58692,CS-RBI Nrupatunga Road
20803,12.97705,77.71005,Graphite India
34300,13.11016,77.58024,Puttenahalli
26479,13.07965,77.53834,Singapura
37944,13.04294,77.59145,Hebbala Bridge
38782,12.97214,77.58689,Reserve Bank Of India Nrupatunga Road
33421,13.09457,77.37504,Kempalinganahalli
38790,13.11016,77.37806,Rashi Gateway Cross
24700,12.88750,77.55042,Vasantha Vallabha Nagara City Engineering College
37945,13.03761,77.67489,KKRGR
34299,13.10995,77.58022,Puttenahalli
38119,12.92430,77.65180,AGR1
38798,12.97753,77.71632,Kundalahalli Metro Station
20727,12.96701,77.58822,Corporation
20777,12.99069,77.55258,ESI Hospital Rajajinagara
38791,13.11034,77.37765,Rashi Gateway Cross
35818,13.11078,77.57995,CS-Puttenahalli
39698,13.05115,77.59542,CS-Kirloskar Business Park
38203,12.85049,77.66201,Electronic City KIA
37946,13.03328,77.63228,4THHBR
38787,13.09726,77.63581,M S Nagara (Thirumenahalli )
38792,13.11118,77.36989,Rashi Gateway
39697,13.05116,77.59540,Kirloskar Business Park
33466,13.17598,77.27220,Kere Kattiganuru
38121,12.98774,77.73730,ITPL Metro Station
38788,13.09731,77.63592,M S Nagara (Thirumenahalli )
36105,12.96353,77.57736,KMT
38122,12.98754,77.73730,ITPL Metro Station
38801,12.97553,77.55486,Magadi Road Metro Station
20770,12.92776,77.68049,Eco Space
28127,13.08824,77.54663,Sambhram College
36168,12.94599,77.59559,WLG2
21741,13.00414,77.75690,Bellathur
37949,13.29269,77.54414,DDBPR
20753,12.93145,77.68686,Devarabisanahalli Ring Road
38813,13.20203,77.77148,Nallur Cross
25791,13.17111,77.51169,Harohalli Palya
38123,13.06123,77.62425,RCH
38803,13.03299,77.53297,Peenya Metro Station
38804,13.05019,77.52561,Shettyhalli Cross
21490,12.96050,77.35961,Cholanayakanahalli
38807,13.04547,77.50725,8ML
38808,13.04308,77.50497,8MLE
38809,13.19789,77.77730,BLPR
38811,13.19772,77.77682,BLPR
38746,13.06834,77.70807,Bidarahalli Dargah
38816,12.87211,77.52716,Metro Tech Aprtment
38817,12.90679,77.71095,BLNSH
38820,12.86000,77.52879,NICE Road Junction
38821,12.86004,77.52879,Nice Road Junction
38822,12.86768,77.51575,Nagegowdanapalya
38823,12.86460,77.52338,NGPLY
38824,12.86379,77.52562,NLPN
39291,12.91730,77.58367,JBN5
38805,13.22263,77.41925,Honnavara
25843,12.89180,77.19264,Heligehalli
21044,12.95738,77.55178,Mysore Road TollGate
39682,12.78637,77.50249,APS College Cross
37950,13.07440,77.68068,BBSR
38810,13.19786,77.77723,BLPRG
38124,13.06671,77.61815,SRMP
38812,13.19787,77.77669,BLPR
38818,12.90967,77.71255,MNTC
38825,12.86467,77.52535,NPGPL1
38819,12.91291,77.71277,MNTC2
37951,13.07648,77.68163,BBSR1
38826,12.86469,77.52534,NGPLYA
37896,12.95649,77.89969,Hulimangala
22086,13.00516,77.68490,ITI Colony Gate
30788,13.33363,77.53195,Kantaanakunte
33255,13.14902,77.50506,Kalenahalli Gate
36171,12.90944,77.56416,DSC
38827,12.86470,77.52532,NGWPLYA1
21934,12.84756,77.67070,Electronic City
28230,13.17841,77.72064,SEZ Amada Circle
37952,13.01231,77.50489,PPS
20671,12.98384,77.64002,Binnamangala
38832,13.29881,77.48428,Kesturu Gate
39292,12.91717,77.58366,JBN5C
37953,13.10687,77.57287,5FS
34438,13.15113,77.55618,RTO Office Yelahanka
29896,13.08930,77.54466,Best County
31617,12.99290,77.50829,Vinayaka Talkies Sunkadakatte
38125,12.85879,77.65603,NICE Toll Electronic City
38829,12.83793,77.70280,IGNOU Singena Agrahara
39681,12.78284,77.49959,APS College Cross
20962,13.04457,77.56281,Kuvempu Circle
38127,13.01480,77.76082,CS-Alphine Viva Apartment Seegehalli
36173,12.91253,77.56706,KDRHC
24690,13.09430,77.65168,Christal House Learning School
28231,13.17853,77.72045,SEZ Amada Circle
38833,13.29893,77.48427,Kesturu Gate
39293,12.91716,77.58389,JBN5TH
39683,12.87942,77.76171,CS-Chambenahalli
25296,13.21135,77.58525,Ganesha Temple Bettanahalli
28281,13.17915,77.53126,Shanubhoganahalli
32365,13.09439,77.65173,Christal House Learning School
37954,13.29435,77.54221,DDBS
36364,13.02998,77.50070,CS-Gruhalakshmi Layout
36174,12.92606,77.55344,CKA
31807,13.23438,77.59394,Thindlu
23744,12.90835,77.56143,Water Tank
37955,13.29368,77.54386,DDBR
34552,13.13403,77.51476,Shivakote
34551,13.13401,77.51473,Shivakote
38834,13.29175,77.43881,Naranahalli Gate
36175,12.92548,77.54997,HKHC
36032,13.01804,77.55671,YTTMC
36409,12.91690,77.48240,CS-Kengeri Railway Station
26510,13.25835,77.50612,SM Gollahalli
21489,12.96024,77.35952,Cholanayakanahalli
34099,12.97731,77.49353,Narasapura (H D Devegowda Circle)
20894,12.94259,77.69717,Kadubisanahalli
37956,12.95918,77.66007,HALMG
33960,13.15222,77.57737,Muddanahalli
20912,12.96821,77.70170,Karthik Nagara
36108,13.28075,77.55161,DBP1
25953,13.23656,77.55107,Hosa Hudya
34175,12.74886,77.65034,Nosenuru
38835,13.29214,77.43981,Naranahalli Gate
30310,13.20181,77.52289,Byrapura
24126,12.83540,77.58930,Malenallasandra Junction
38131,13.02615,77.62582,HBR 1st Stage BSNL Office
34171,13.14791,77.55089,Nitte International School
37957,12.95870,77.66484,HALMG1
21967,12.97509,77.66605,GM palya
36109,13.28067,77.55171,DBP
38155,13.16054,77.59547,SLV Petrol Bunk
29315,12.97720,77.49366,Narasapura (H D Devegowda Circle)
26095,13.12840,77.36744,Ice Factory Veeranannipura
36178,12.92403,77.55324,KMK1
24089,12.76507,77.65365,Haragadde
38009,13.02554,77.64084,CS-80 Feet Road Kalyananagara
34009,12.74764,77.61494,Mutturayanaswamy Doddy
28992,13.14525,77.54391,Mid City
21071,12.98267,77.56837,Okalipura
38132,13.02612,77.62598,CS-HBR 1st Stage BSNL Office
31275,12.75264,77.61167,Krishnayyana Doddy
39530,13.09836,77.39295,CS-Nelamangala Taluk Office
39553,12.97800,77.49365,NHDD
36489,13.09443,77.65145,CS-Christal House Learning School
38844,12.76104,77.48669,NTGHRC
35723,12.84621,77.67184,ELC Toll Point
28932,13.02597,77.72036,Medahalli
20947,12.92388,77.62852,Krupanidhi College
20967,12.95427,77.58449,Lalbagh Main Gate
27860,12.98435,77.55723,Rajajinagara Entrance
20952,12.92572,77.62540,Kudure Mukha Colony
37959,13.07744,77.65507,CS-Depot-48
34779,13.15833,77.32524,Thalaker Cross
38845,12.76111,77.48654,NTGR1
38133,13.03699,77.63909,Hasanath College Hennur Bande
32529,12.88874,77.47754,Doddabele
33930,13.14528,77.54388,Mid City
36713,12.84829,77.67081,CS-Electronic City
35721,12.90471,77.47084,Depot-12 Gate
31972,13.08933,77.54466,Best County
38838,13.25971,77.42428,Agrahara
38134,13.03697,77.63927,CS-Hasanth Collage Hennur Bande
25160,12.92747,77.49520,Dubasipalya
35870,13.02330,77.54978,Yashwanthapura Metro Station
38850,13.22995,77.27231,NDVDA
34081,13.13414,77.53412,Nammura Sarkari School
29279,13.13415,77.53406,Nammura Sarkari School
29545,12.95714,77.81518,Anugondanahalli
38849,13.23399,77.26799,NDVD
38851,12.89309,77.54310,CS-Vinayakanagara Indira Canteen
38853,13.04886,77.55762,BELF1
38854,13.04883,77.55791,BELF1
37960,13.00328,77.68252,CS-Depot-24 Gate
21017,13.02652,77.54439,MEI Factory
20998,13.04120,77.62095,Manyatha Tech Park
22074,12.79089,77.77629,Indlubele
32706,12.75354,77.45215,Gollahalli
26051,12.88935,77.18402,Huluvenahalli
35801,12.84811,77.67068,Electronic City FLY
39554,12.97987,77.49326,NHDDC
33987,12.95502,77.80722,Muthkur
22505,12.93717,77.57965,South End Circle
38852,12.89314,77.54312,Vinayakanagara Indira Canteen Gubbala  Road
22061,12.91966,77.57423,Hunasemara
38856,13.00534,77.64118,CS-ADMC Quarters Office
38135,12.93631,77.51841,RR GATE
35803,12.84598,77.67202,Electronic City FLY
35336,12.84536,77.66543,Electronic City
38840,13.24788,77.42803,Shykaladevanapura
27492,12.73197,77.52192,Nishane
33437,12.74126,77.43096,Kempashetty Doddy
36110,13.28041,77.55176,DBPR
38973,12.88354,77.54856,RGH
39294,12.97518,77.60792,MGR
31997,13.19319,77.81317,Bettahalli Gate
21196,12.96262,77.59111,Subbaiah Circle
32638,12.84622,77.47075,Gangasandra
30565,13.18410,77.70522,Kadayarappanahalli
38857,12.99497,77.65405,CS-Karnataka High Court Staff Quarters
38860,13.01183,77.59603,Parachute
36037,12.97471,77.57028,KBS
37733,12.84580,77.66797,Electronic City Toll
21985,13.06462,77.65190,Gubbi Cross
27968,13.05212,77.68101,Rampura Cross
33777,13.03522,77.15816,Mallasandra
35254,13.02263,77.53270,Kanteerava Studio
28364,13.02365,77.16400,Shivanasandra
22430,13.07190,77.63376,RK Hegde Nagara
21195,12.96945,77.58716,St Marthas Hospital
36630,13.04925,77.55163,JLHPS
22341,12.93222,77.58022,Nanda Talkies
31858,13.12182,77.61128,Bagalur Cross
38858,13.00521,77.63878,Chowdary Line
32768,13.06420,77.65190,Gubbi Cross
33857,13.00109,77.50847,Maruthi Markandeyanagara
31887,12.75687,77.43645,Bannigiri
22312,12.74811,77.53654,Muni Nagara
35844,12.91507,77.26866,Jodadakatte
22075,12.79079,77.77618,Indlubele
36038,12.97480,77.57069,KBS
22264,12.94515,77.49545,Mariyappanapalya
38861,13.01184,77.59594,CS-Parachute
38859,13.00521,77.63881,CS-Chowdary Line
35352,12.84549,77.66530,Electronic City
39496,12.93054,77.49378,Jnanabharathi Layout 1st Block
34117,12.99843,77.55288,Navarang Theatre
33227,13.18410,77.70429,Kadayarappanahalli Cross
39684,13.06550,77.65193,CS-DECATHLON Dodda Gubbi Cross
27532,12.98284,77.56813,Okalipura
22308,12.75655,77.52841,Mukkodlu
31827,12.83541,77.52681,Vaderahalli
32779,12.78843,77.48383,Gudipalya Cross
36112,13.28041,77.55162,DBPR2
35885,12.90743,77.57305,CS-JP Nagara Metro Station
21999,12.97400,77.64118,Indiranagara 6th Main
21472,12.96448,77.56171,Binnypet
36040,12.96363,77.57875,KMT
38862,12.98949,77.66389,CS-Nagavarapalya
21938,12.83499,77.78529,Exide Gate
25515,12.72554,77.52946,Gottigehalli Junction
22288,12.96691,77.62117,Military Accounts Office
20772,12.83594,77.65742,Electronic City Wipro Main Gate
20859,13.01174,77.55174,Iskcon Temple
39511,12.93142,77.49674,CST
24076,12.81170,77.58446,Sarala Birla Academy
22995,13.05535,77.70589,Aduru
38863,13.01161,77.59353,Vasanth Enclave
35836,13.10413,77.57254,CS-5th Phase Yelahanka
30819,12.65154,77.49495,Karekallu Doddi
36372,13.07326,77.24483,Solur Hassan Road
37018,12.84753,77.67138,Electronic city Bus Station-Ruchi Sagar
38136,12.90921,77.64153,Amruth Sweets
30829,12.78512,77.46582,Karenahalli
38864,13.01167,77.59351,CS-Vasanth Enclave
36113,12.95810,77.51908,NBC
38865,12.98759,77.62236,CS-MEG Center
38866,12.94738,77.64094,CS-Ganapathi Enclave
38868,12.96205,77.63381,CS-Domlur Marriad Accomadation
38870,12.94593,77.62266,CS-Nethravathi Block
21473,12.96468,77.56176,Binnypet
36373,13.06492,77.25694,Solur Railway Station
21549,12.98911,77.44966,Kadabagere Cross
36041,12.96407,77.57777,KMT1
26564,13.02102,77.38432,Sondekoppa
21524,12.97421,77.42097,Honaganahatti
36905,12.93341,77.44528,Kengeri bus station-medical store
33880,12.88313,77.18241,Mathikere Magadi
37014,12.84706,77.67040,Electronic City Bus Station - Public Toilet
38137,12.90926,77.64147,Amruth Sweets
36114,12.95825,77.51897,NBC
23584,12.87467,77.59490,Meenakshi Temple
36998,12.96589,77.53458,Vijayanagara bus stand -White Patals
23856,12.82804,77.56248,Shanubhoganahalli 1st Cross
25217,13.17384,77.59546,Embassy School
38138,12.90929,77.63806,Born Babies
38871,12.94553,77.62274,Nethravathi Block-05
20857,12.98393,77.59740,Indian Express
35360,12.91244,77.48543,Kengeri
35827,12.90696,77.51211,Glass House Halage Vaderahalli
39295,12.97718,77.60861,MPG
20881,12.93203,77.61318,Hosur Road junction
29935,13.19322,77.81314,Bettahalli Gate
37015,12.84698,77.67101,Electronic city Bus Station-E Toilet
35805,13.19916,77.70774,Kempegowda International Airport
37411,12.79664,77.38467,BDD
38875,12.96036,77.64156,DMBG
20649,12.93573,77.51332,Bengaluru University Gate
36377,13.06604,77.45335,CS-Makali
38872,12.95908,77.61220,CMP Centre and School
38873,12.94678,77.62871,CS-Ejipura
38874,12.95906,77.61229,CS-CMP Centre and School
36189,12.98388,77.74403,CS-TATA ELEXI LTD ITPL Road
38784,12.84289,77.42114,Shaneshwaraswamy Temple Sheshagirihalli
38876,12.94739,77.64092,Ganapathi Enclave
38139,12.90929,77.63804,Born Babies
39133,12.98077,77.53680,SDP
21603,12.94621,77.58879,Siddapura Ashoka Pillar
22151,13.03245,77.75855,Kannamangala Gate
34842,13.03220,77.75870,Kannamangala Gate 2
22465,13.00124,77.75765,Sathya Sai Baba Mandir
35841,12.93605,77.24350,Gavinagamangala Gate
37412,12.79663,77.38455,BDD
38140,12.90692,77.63254,Salarpuria Apartment
38881,13.38634,77.69787,BHOGA NANDISWARA TEMPLE
37016,12.84681,77.67210,Electronic City - BMTC Bus Pass Counter
36044,12.80138,77.57690,BNP3
32595,13.17390,77.59546,Embassy School
21809,13.02191,77.76208,Chaithanya Samarpan Apartment
39512,12.92767,77.49250,JNBF
36118,12.95295,77.52005,NBC
37413,12.79680,77.38455,BDD
35948,13.00519,77.68500,ITI Colony Gate
21808,13.02070,77.76206,Chaithanya Samarpan Apartment
36425,12.94537,77.46782,CS-Ramasandra
39143,12.90780,77.48805,JGLH
35728,13.20103,77.66089,Navayuga Toll
39555,13.09576,77.54128,Muneshwara Layout Vaderahalli
38141,12.90696,77.63256,Salarpuria Apartment
37017,12.84680,77.67206,Electronic city - KSRTC Booking Counter
36191,12.93015,77.55316,CS-Vivekanandanagara Adya Ananda Bhavana
21779,12.84214,77.78383,Boorugunte
30258,12.94547,77.81545,Byalahalli Garment
35883,12.92133,77.58024,Rashtreeya Vidhalaya Road
24840,12.90673,77.52042,Depot-21 BEML Layout
36192,12.86246,77.56325,CS-Anjanapura Mangalya Prosper Apartment
37414,12.79680,77.38453,BDD
38883,13.37876,77.67440,KANIVE BASAVANNA TEMPLE
36120,13.01416,77.56587,IISC
37013,12.84757,77.67138,Electronic city - Karnataka Bank ATM
38142,12.91066,77.63244,Vasudev Adigas Hotel
36456,12.97867,77.60941,CS-Army Public School Kamaraja Road
22068,12.98421,77.59735,Indian Express
36996,12.96600,77.53470,Vijayanagara bus station -Tasty Bites
36426,12.98404,77.51854,CS-Maruthi Mandira
38887,13.47421,77.69952,ISHA FOUNDATION
38143,12.91069,77.63247,Vasudev Adigas Hotel
39556,13.09568,77.54134,Muneshwara Layout Vaderahalli
21780,12.84205,77.78377,Boorugunte
25258,12.85266,77.33857,Gadigaiahana Doddy
37415,12.79703,77.38475,BDD
22175,13.03457,77.75908,Khaji Sonnenahalli Gate
38885,13.40749,77.69589,SIR M VISHWESHWARAYYA MUSEUM AND SAMADI
20913,12.96825,77.70153,Karthik Nagara
23641,12.90087,77.55981,West Cross Kumaraswamy Layout
38886,13.45512,77.70219,RANGASTALA RANGANATHA TEMPLE
39391,12.93811,77.57182,NGS
36618,13.07169,77.63375,CS-RK Hegde Nagara
22188,12.88617,77.56658,Konanakunte
26487,13.09958,77.74374,Singarapura
37416,12.79697,77.38493,BDD
21448,12.91991,77.58062,Jayanagara 40th Cross
21016,13.02640,77.54402,MEI Factory
36458,12.93635,77.51948,Rajarajeshwari nagara Metro Station
22536,13.01736,77.70462,TC Palya  Gate Hosakote Road
21873,13.07542,77.43636,Dasanapura
21521,12.98175,77.43952,Hamsa Farm
21951,12.84467,77.78306,Garments Factory Borugunte
20925,12.91379,77.48710,Kengeri Bus Station
21031,12.95227,77.70002,Multiplex Marathahalli
35846,12.89889,77.27819,Veeregowdanadoddy Colony
20771,12.92838,77.68120,Eco Space
39392,12.93884,77.57174,NGSNR
38144,12.91245,77.63521,Srirangam Silk House HSR Layout
32399,12.95362,77.79715,Damodhar Nagara
37012,12.84892,77.67034,Electronic city Bus Station - Canara Bank ATM
20978,12.98868,77.68904,Mahadevapura Ring Road
38145,12.91229,77.64140,Swabiman Park
38896,12.87413,77.54070,MKP
35891,12.86160,77.52993,Silk Institute Metro Station
38899,12.79521,77.50310,NWKLP
21530,12.98726,77.49250,Herohalli Cross
36379,12.92832,77.54603,CS-Janatha Bazar Banashankari
20690,12.94013,77.52412,BWSSB Quarters Nayandahalli
22992,13.05553,77.70580,Aduru
23639,12.75896,77.49443,Nettigere
38901,12.97323,77.59504,CS-Kastruriba Road
35675,13.07838,77.35297,Arogya Dhama
36196,13.00069,77.61604,EST
38146,12.91220,77.64151,Swabhiman Park
39102,12.95457,77.91071,Seetanayakanahalli
36391,13.00060,77.52500,Chowdeshwarinagara
21021,12.91657,77.60427,MICO Layout BTM
20989,12.99727,77.56945,Malleshwara Circle
38897,12.87409,77.54079,MKP
38892,13.14968,77.65884,Razakpalya Cross
36121,13.01075,77.52194,LGR
35894,12.92440,77.49829,Pattanagere Metro Station
20841,12.86988,77.65299,Hosa Road
32373,13.03293,77.53395,CMTI
32055,12.92295,77.54897,Bhuvaneshwari Nagara
36380,12.92832,77.54585,CS-Janatha Bazar Banashankari
38147,12.91264,77.64461,Nandini Cool Joint
34193,13.01123,77.55437,Orion Mall Malleshwara
20606,13.20979,77.44534,Anjaneya Temple Madhure
36431,13.07202,77.78704,CS-Hosakote KEB Circle
22307,13.02857,77.56162,MS Ramaiah College
36381,13.01203,77.54415,CS-Mahalakshmi Layout
21032,12.95154,77.69956,Multiplex Marathahalli
22593,13.04231,77.61382,Veerannapalya
38898,12.87412,77.54083,MKP1
38902,12.97318,77.59498,Kasturiba Road
32860,13.21912,77.75196,Haraluru Gate
21048,13.04171,77.57273,Nagashetty halli
34082,13.06100,77.31797,Nanda Gokula Nagara
38148,12.91267,77.64466,Nandini Cool Joint
23485,13.19904,77.70871,Kempegowda International Airport
36048,12.91154,77.60009,JPN3
22133,12.91574,77.56141,Kadirenahalli Village
32734,13.05626,77.35794,Goravanahalli Cross
28220,13.06111,77.33447,Seetharam Bhattarapalya
23335,13.02492,77.55746,Bombay Dyeing Yashwanthapura
38802,13.02698,77.57975,Ashwathnagara
36198,12.90854,77.60073,JP Nagara 3rd Phase
39514,12.96565,77.16382,Devarahatti Magadi
38907,12.96031,77.55916,CS-Sirsi Circle
39183,12.83931,77.32756,Ramapura Cross
35896,12.93689,77.51960,Rajarajeshwari nagara Metro Station
36049,12.90865,77.60037,Jpn3rd
36126,12.91088,77.56698,DSC
38893,13.15723,77.65873,Depot-52 Huttanahalli
33186,13.03257,77.65381,Jyothi Nagara
28752,13.08219,77.73857,Mandur
24838,12.97686,77.72596,Depot-18 White Field
36123,12.94928,77.62032,NGV
22015,12.87918,77.56730,Hari Nagara Cross
38069,13.19975,77.70514,Kempegowda International Airport
28680,13.08260,77.37155,Mallarabanavadi Cross
32126,13.08764,77.37555,BP Indian School Nelamangala
24080,12.79796,77.60381,Begihalli
37646,12.93908,77.57155,NTLP
35895,12.93388,77.51047,Jnanabharathi Metro Station
33130,12.91133,77.56334,JHBCS Layout
33771,13.08246,77.37168,Mallarabanavadi Cross
35898,12.94675,77.52995,Mysore Road Metro Station
36199,12.91972,77.64455,D25
38149,12.91696,77.64477,MTR Hotel
29531,13.20985,77.44529,Anjaneya Temple Madhure
35770,12.94580,77.69842,Marathahalli Police Station
32084,13.12643,77.47344,Bilijaji
24221,12.76503,77.65364,Haragadde
24216,12.72307,77.68131,Gowrenahalli
22285,12.89312,77.56718,Metro
33673,12.98962,77.38321,Lakshmipura
32502,13.25050,77.62393,Dodda Cheemanahalli Cross
28086,13.21207,77.64734,Sadahalli
22846,12.99596,77.60178,YMC Nandhidurga Road
38150,12.91703,77.64485,MTR Hotel
36298,12.95852,77.66605,CS-HAL Main Gate
34888,13.00461,77.48742,Vidyamanyanagara
32006,13.20867,77.58820,Bettenahalli
38151,12.92173,77.64503,Nandas Hotel
24855,12.79047,77.70677,Depot-32 Suryacity
35868,13.03300,77.53337,Peenya Metro Station
31346,12.88297,77.56616,Konanakunte Reliance Fresh
34094,12.81370,77.64233,Nanjapura Cross
24271,13.02893,77.55908,Mathikere Post Office
32896,12.81786,77.70894,Heelalige
36414,13.01497,77.70945,CS-Bhattarahalli Bank Of India
35779,12.98328,77.60341,Shivajinagara Bus Station
38910,13.00756,77.64077,CS-Ayyappa Temple Banasawadi
27640,13.04632,77.57267,Patelappa Layout
21090,12.85897,77.66179,Electronic City PESIT College
23685,12.93945,77.57204,Nettakallappa Circle
38017,13.02616,77.72082,Medahalli
36129,12.98295,77.60297,SBS
38908,12.98828,77.61490,Kendriya Vidyalaya Halasuru (MEGC)
38913,13.01588,77.60278,Modi Garden
25675,12.95862,77.66640,HAL Main Gate
27839,13.14667,77.41740,Railway Gollahalli
31316,12.89968,77.80841,Kuguru Gate
28968,13.05997,77.50685,MEI Layout Arch
36389,12.90880,77.53588,CS-Poornaprajna Layout
33810,12.95419,77.46934,Manganahalli
38914,12.88780,77.54888,ISKCON Temple Maruthinagara
36131,12.96485,77.59661,Richmond Circle UFLY
32726,13.14126,77.42630,Gopalapura
37004,12.97708,77.72678,White Field Bus Station- Medical Store
32056,12.92298,77.54904,Bhuvaneshwari Nagara
38152,12.92668,77.41741,Udhbhava School
30648,12.93651,77.84125,Kalkunte Agrahara School
35905,12.97954,77.59260,Dr BR Ambedkar Metro Station Vidhana Soudha
22003,12.95821,77.66821,HAL Main Gate
23450,12.90988,77.58579,R V Dental College
26192,12.96197,77.49798,ITI Layout Cross
38915,13.03175,77.64362,CS-Sinclair High School
20994,12.95265,77.48418,Manganahalli Cross
28062,12.93570,77.51834,Rajarajeshwari nagara Gate
21157,13.07066,77.50395,Sapthagiri Hospital
21269,12.97359,77.54155,Vijayanagara Vijaya Bank
38912,13.17498,77.56439,Rajanukunte
20996,12.97401,77.54656,Manuvana
22004,12.95854,77.66505,HAL Main Gate
38686,13.01892,77.70878,Bhattarahalli
31501,12.96165,77.46698,Udaya Badavane
20754,12.93218,77.68729,Devarabisanahalli Ring Road
36468,12.95849,77.51892,CS-Nagarabhavi Circle
32996,13.05913,77.39389,Byregowdanahalli2
35856,12.86152,77.33503,Aane Kempegowdana Doddy
36392,13.10127,77.44443,Tata Values Homes Apartments
36393,13.04416,77.53506,CS-ISRO Quarters Jalahalli
34548,12.92749,77.85015,Shiva Ittige Factory
38919,12.89605,77.55895,APJ Park
35907,12.97301,77.61698,Trinity Metro Station
35857,12.85660,77.33393,Ningegowdana Doddy
39409,13.05847,77.59154,KDGHL
39145,13.07224,77.78686,KEB
21036,12.95133,77.49421,Muneshwara Layout
29307,12.81365,77.64231,Nanjapura Cross
38154,13.15300,77.60740,Gangapura
28389,13.15551,77.73010,Kondenahalli Gate
38920,13.08765,77.41999,NDPL
38930,12.98891,77.54702,CS-Shivanahalli 4th Main
28162,12.90670,77.57334,Sarakki Signal
36134,12.89737,77.64538,Hosapalya Kudlu Gate
24872,12.92087,77.73643,Gunjuru
34919,12.82674,77.64002,Vapasandra
24422,13.21571,77.45562,Channadevi Agrahara Cross
36135,12.95620,77.57735,BSPC
36394,12.95959,77.65423,CS-ISRO Murugeshpalya
35908,12.97653,77.62663,Halasuru Metro Station
32046,13.20166,77.64511,Bhovipalya
36136,12.95623,77.57727,BSPCS
21013,12.97498,77.54212,MC Layout
35117,12.96064,77.60095,Nanjappa Circle
38921,13.08814,77.42022,NDPL
38157,13.18972,77.60057,Kuduregere Gate
39146,13.07050,77.78367,HSKH
22025,13.03945,77.64140,Hennur
32167,13.19312,77.48453,Byatha
33116,12.91486,77.90338,Jayamangala
32711,13.15037,77.72833,Gollahalli Cross
22774,12.97901,77.57186,Depot-07 Subhashnagara
21984,13.06454,77.65167,Gubbi Cross
26657,12.90035,77.50695,Srinivasapura Colony
23727,12.77267,77.50359,Somanahalli
35189,12.95852,77.66629,HAL Main Gate
36227,12.95368,77.91541,Seetanayakanahalli Gate Malur Road
21950,12.84531,77.78298,Garments Factory Borugunte
25722,13.09183,77.74168,Hancharahalli Gate
29561,12.92666,77.36000,Aralimaradapalya Cross
26309,12.83051,77.64106,Jayasandra halli
30435,12.94010,77.37789,Jodi Aladamara
22829,12.95664,77.74472,Varthur Kodi
21796,13.05702,77.64822,Byrathi Cross
35909,12.97839,77.63881,Indiranagara Metro Station
26301,12.91485,77.90329,Jayamangala
26068,12.92291,77.36866,Hunnigere
38931,13.12838,77.86877,SNKH
22084,13.00790,77.68338,ITI Circle
20660,13.04762,77.57598,Bhadrappa Layout
34611,13.07975,77.53823,Singapura
26134,12.97826,77.63860,Indiranagara Metro Station
39200,13.17630,77.36656,VDH
33505,12.92815,77.90748,Kodahalli Gate
34798,13.17859,77.58859,Tharahunase
26364,12.78977,77.31341,Yale Doddy
38932,12.89650,77.72033,CS-Kodathi Gate
35911,12.99085,77.65250,Baiyappanahalli Metro Station
36138,12.95711,77.56740,CMRPT
39103,12.95462,77.91081,Seetanayakanahalli
23716,12.91294,77.63807,BDA Complex HSR Layout
32710,13.15042,77.72844,Gollahalli Cross
21755,13.01951,77.70898,Bhattarahalli
20808,12.94339,77.56602,Hanumanthanagara Ward Office
20865,12.98754,77.73636,ITPL
34051,12.93687,77.57193,Nagasandra Circle
36398,13.02376,77.51852,CS-Therelek Engineers PVT LTD Peenya
35876,12.99044,77.57077,Mantri Square Sampige Road Metro Station
32880,12.86520,77.73261,Harohalli Gate
26060,12.91524,77.44476,Hunasemaradapalya
26070,13.03928,77.39112,Hunnigere Cross
36472,12.96046,77.50466,CS-Kengunte Circle
38158,13.18973,77.60059,Kuduregere Gate
26565,13.09289,77.39476,Sondekoppa Circle
38933,12.90148,77.70495,RJ Tech Park
38935,12.99816,77.66325,KSTN
36399,13.00466,77.48737,CS-Vidyamanyanagara
26824,12.91531,77.82413,Tattanuru
36986,12.96516,77.53452,Vijayanagara - Women Waiting Lounge (Nirbhaya)
37044,12.98384,77.60345,Shivajinagara Bus Station - Medical Store
22921,12.91727,77.58367,5th Block Jayanagara
26310,12.83056,77.64103,Jayasandrahalli
26740,12.94457,77.44959,Sulikere Palya
26767,13.20445,77.55912,Suradenapura Gate
27342,13.10367,77.57695,Vishal Mart 4th Phase Yelahanka
26131,12.97026,77.64122,Indiranagara 12th Main
26771,12.98643,77.64810,Suranjan Das Road/NGEF
35734,12.94900,77.56765,CS-Ramakrishna Ashrama
26838,13.09706,77.40148,TB Nelamangala
38111,12.96036,77.66622,CS-HAL Market/SBI Bank
27501,12.86820,77.59783,Nobo Nagara
38925,13.11056,77.44347,Honnasandra Cross
38936,13.07544,77.56766,THND1
28170,12.97572,77.53910,Sarvajna College/Vijayanagara
27343,13.08402,77.41724,Vishwa Shanti Ashrama
27377,13.09403,77.40561,Weavers Colony Nelamangala
21818,12.80227,77.70450,Chandapura
34012,13.28662,77.55178,Mutturu
38929,13.08730,77.41984,NDRP
36400,12.96336,77.68209,HAL LCA
23925,12.91293,77.63814,BDA Complex HSR Layout
38924,13.11049,77.44347,Honnasandra Cross
27545,12.89884,77.50496,Omkarava Nagara
38934,12.90154,77.70500,CS-RJ Tech Park
29571,13.07966,77.42419,Arishinakunte
27451,12.91938,77.45602,New Byrohalli
29150,13.28671,77.55166,Mutturu
27937,13.19128,77.79510,Ramapura
28703,12.97274,77.67796,Malleshpalya New Bus Station(Vignananagar)
28323,12.95074,77.62375,Shine Bakery
27951,12.97793,77.51647,Ramkrishana Layout
28202,12.97325,77.44906,Seegehalli
39149,13.13074,77.80416,Kambalipura
30069,13.05703,77.71504,Bidarahalli Cross
38926,13.09256,77.43605,NGRR
28193,12.94272,77.63081,Ejipura School
28594,12.76540,77.32076,Madapura
28598,13.05665,77.47343,Madavara
38937,13.07483,77.56751,TDL1
28081,12.90400,77.47570,RWB Gate Kengeri (Kengeri Work shop)
36476,12.98075,77.50700,CS-Annapoorneshwarinagara
36144,12.95359,77.59214,SNBS1
32164,12.80373,77.54365,Byatarayana Doddy Cross
29203,12.95223,77.52122,Nagarabhavi 1st Stage Durga Parameshwari Temple
34914,12.98568,77.40221,Varthuru
35399,12.80222,77.39714,Byramangala Cross
28797,12.96314,77.55906,Maramma Temple
28810,13.22281,77.54973,Marasandra Circle
29239,12.98948,77.66390,Nagavarapalya
29225,12.93697,77.57208,Nagasandra Circle
35826,12.86788,77.47862,Kuvempunagara
28596,12.76177,77.32802,Madapura Cross Bidadi
29372,12.84148,77.64798,Neeladri Nagara
28827,12.96983,77.53228,Marenahalli
33628,13.25476,77.64965,Kundana Cross
38927,13.09261,77.43648,NGR1
38938,13.07465,77.56738,TDL2
36477,12.99028,77.50394,CS-Sunkadakatte
29371,12.84300,77.64426,Neeladri Nagar SNN Raj Neeladri Apartment
29582,12.87068,77.27896,Athimagere
21756,13.02046,77.70985,Bhattarahalli
26477,13.14767,77.56972,Singanayakanahalli Gate
36145,12.97749,77.57098,KBS
36146,12.94840,77.57978,LBHWG
39619,12.92197,77.55084,Bhuvaneshwari Nagara Mahalakshmi Temple
36147,12.97726,77.57099,KBS1
29525,12.92427,77.82438,Anjan Vidya Kendra School
29412,12.97116,77.47145,5th Stone NICE Road
35921,13.02812,77.63316,Hennur Junction
38163,13.24594,77.61288,Cambridge North Campus
37773,13.17327,77.63392,CKJLA
29763,12.84391,77.60611,Basavanna Devasthana CK Palya
24515,13.15726,77.82491,Chikka Kogilu Gate
29594,12.94340,77.53675,Avalahalli New BDA Layout
29221,13.16665,77.82810,Nagarenahalli
38928,13.09261,77.43655,NGR2
38939,13.07535,77.56765,TDL2
36478,13.05347,77.55086,RMCPDummy
38164,13.24591,77.61290,Cambridge North Campus
29703,12.92477,77.52634,Bangarappa Nagara
22299,13.09934,77.57717,Mother Dairy Cross Yelahanka
36148,12.93203,77.54154,HSK1
22026,13.03949,77.64171,Hennur
22354,12.79229,77.72844,Neraluru Gate
29726,12.97203,77.52938,Bapuji Layout Saraswathi Nagara
29745,12.88359,77.45044,Basava Gangotri Samsthe
22088,13.10246,77.62907,Ittige Factory
38940,13.07521,77.58193,NCBS College
36479,13.05337,77.55083,RMCP Connector
31801,13.17198,77.58129,Thimmasandra
29791,12.98724,77.56770,Bashyam Nagara Okalipuram
35913,12.79690,77.38458,Bidadi
37508,13.01809,77.70659,CS-Bhattarahalli Lake Gardenia Apartment
22313,12.74800,77.53652,Muni Nagara
30104,12.81039,77.40634,Billa Kempanahalli
29855,13.10134,77.63618,Bellahalli Cross
33420,12.73298,77.44009,Kempaiahnapalya Cross
36150,12.96585,77.58627,CORP
29956,12.90313,77.49819,BGS Health City
30108,13.08744,77.41242,Binnamangala Towads Nelamangala)
29822,12.91906,77.47100,Beedi Karmikara Colony
36407,12.90481,77.47068,Depot-12 Gate
35417,13.22378,77.46814,11th Mile Channadevi Agrahara
24950,13.24054,77.61099,Devarahalli Cross
31367,13.07340,77.59328,GKVK GATE
31460,12.98638,77.78122,Thirumalashettyhalli Cross
30572,13.16835,77.63116,Kadugenahalli Gate
25762,13.05805,77.83650,Haraluru Gate
31471,12.90176,77.82656,Thiruvaranga
30837,12.88865,77.53622,Karishma Hills
25070,13.29568,77.53639,Doddaballapura Tollgate
31389,13.04319,77.56131,Kuvempu Circle 1
38942,12.91723,77.59696,JEST
38943,12.91687,77.59696,JEST
20887,12.94509,77.52857,Nayandahalli Junction
38166,13.07044,77.62065,Venkateshwara Nagara Cross
30476,12.89081,77.45532,Juggath Farma
31878,12.91899,77.47749,Bande Mutt Gate Kengeri
31802,13.17202,77.58133,Thimmasandra
22082,12.99821,77.62324,ITC Factory
32033,13.00257,77.54096,Bheemajyothi Nagara Shankara Mutt
31953,13.10144,77.63606,Bellahalli Cross
31927,12.95128,77.52978,BCC Layout
32036,12.90822,77.50942,BHEL Concord Layout
32442,12.85669,77.46556,Devagere
32526,13.29569,77.53633,Doddaballapura Tollgate
38944,12.91659,77.61015,UDPG
37440,12.91405,77.48698,KENGERI BUS STAND
38167,13.04307,77.59368,Hebbal Parking
32040,12.92192,77.50880,BHEL Layout Maramma Temple
21868,12.98983,77.59938,CSI Hospital
32407,12.74761,77.77447,Dasanapura
32074,13.06257,77.59289,Big Market Sahakaranagara
31881,12.93304,77.45183,Banglow Sulikere
39685,13.01929,77.70863,CS-Bhattarahalli
32112,12.90640,77.62970,Bommanahalli
25990,13.07000,77.78695,Hosakote Ayyappa Temple
32369,12.88746,77.55039,Vasantha Vallabha Nagara City Engineering College
32294,12.95628,77.28314,Chikka Thogurupalya
34734,12.77736,77.47598,Sundaram Estate
32475,12.92053,77.56002,Devegowda Hospital
38945,12.91641,77.61014,UDPIG
22101,12.90140,77.57344,Jaraganahalli Cross
23743,12.82670,77.56146,Shanubhoganahalli Bannerughatta
35299,12.78862,77.62959,Jigani Double Road
21619,12.95535,77.31204,Varadenahalli Handpost
34004,12.83246,77.73463,Muttanalluru
28713,12.79604,77.47432,Mallipalya
32974,13.07003,77.78701,Hosakote Ayyappa Temple
22083,12.99860,77.62211,ITC Factory
38946,12.91659,77.61010,UDPI1
38949,13.09931,77.57715,CS-AROMA BAKERY Yelahanka NEW Town
34804,12.80374,77.54360,Byatarayana Doddy Cross 1
38948,12.96439,77.61820,CS-ARMY Public School ASC Center
38951,13.08341,77.64253,Bhartiya City Chokkanahalli
38952,13.08332,77.64251,CS-Bhartiya City Chokkanahalli
32624,12.89338,77.57192,Ganapathipura
34916,12.96097,77.31245,Varadenahalli
36155,13.07005,77.78435,HSK3
36154,13.07048,77.78505,HSK2
32481,12.98761,77.55100,Dhobi Ghat Rajajinagara
24967,13.22638,77.68726,Dhaba Gate
32477,12.93894,77.46770,Dhananayakanahalli
32645,12.87618,77.53297,Ganigarapalya
23362,12.86745,77.56561,Nandi Garden Kothanur
39201,13.17631,77.36627,VDH
34325,13.28041,77.55162,Doddaballapura Railway Station
32004,13.21012,77.58795,Bettanahalli Site
21964,12.87655,77.56690,Glass Factory
26782,12.98851,77.57414,Swastik Sheshadripuram College
30262,12.80591,77.54404,Byalamarana Doddy
32697,12.92667,77.52693,Global Academy
36156,12.93123,77.58611,JBS
22102,12.90142,77.57331,Jaraganahalli Cross
22289,12.94599,77.64015,Military Bridge
34696,12.96262,77.16667,Sripathihalli
35631,13.18980,77.74341,Baladimmanahalli
21888,13.13719,77.74576,Deshnarayanaswamy Temple
32659,13.01481,77.38346,Gayathri Nagara Cross
22503,12.93793,77.62766,Sony World 100ft Road  Koramangala
36485,12.98010,77.63713,CS-Silicon City Public School Binnamangala
35692,12.96098,77.31238,Varadenahalli
22502,12.93685,77.62659,Sony World 100ft Road  Koramangala
38954,12.94795,77.62121,NGVJ
38955,12.94921,77.62027,NGVG
38957,12.94923,77.62038,NGVG
38956,12.94922,77.62038,NVG1
36502,12.81429,77.50677,Brigade Meadows Kanakapura Road
34415,13.11538,77.63416,Reva College
39515,12.96265,77.16667,Sripathihalli
36157,12.92668,77.58618,JBS2
32898,13.07597,77.45854,Heggadadevanapura
22490,12.81695,77.78539,Silk Farm
24896,12.92658,77.52002,Devadiga Soudha
24900,12.85653,77.46570,Devagere
35470,13.23506,77.71300,Anjaneya Temple Devanahalli
35737,12.91417,77.65226,CS-CPWD HSR Layout
20842,12.93043,77.54361,Hosakerehalli  Junction
30514,13.06635,77.64081,K Narayanapura Main Bus Stand
22373,12.90473,77.50461,Omkar Hills
22375,12.90481,77.53011,Patalamma Temple
38959,12.93745,77.62660,CS-Sony World 80ft Road Koramangala
36487,13.06573,77.55331,Bloom Field Garden
38110,12.96036,77.66621,HAL Market/SBI Bank
34342,13.04526,77.46132,Rajeshwarinagara
36159,12.92631,77.58382,JBS4
26426,13.05685,77.46017,Siddana Hosahalli
30453,13.18158,77.75914,Jonnahalli Gate
24969,12.93885,77.46781,Dhananayakanahalli
36158,12.92863,77.58604,JBS3
23942,12.92897,77.63319,Wipro Park Koramangala
33675,13.03747,77.46120,Lakshmipura
38953,12.93016,77.60971,CS-St Johns Wood Apartment Tavarekere
21068,13.02514,77.51122,NTTF Peenya
38159,13.20278,77.60320,Gadenahalli Cross
22120,13.18160,77.75917,Jonnahalli Gate
27845,13.28041,77.55176,Doddaballapura Railway Station
35260,12.92025,77.74168,Hosahalli
20927,12.95759,77.59286,KH Road
23938,12.93455,77.62968,Maharaja Signal
28205,13.01331,77.76101,Seegehalli Gate  Kadugodi
26844,13.05906,77.46474,TCI
24843,13.00163,77.68359,Depot-24 ITI Layout
33221,13.23958,77.48359,Kadanuru Hand post
26700,13.01521,77.70947,Bhattarahalli Bank Of India
34132,13.03157,77.50358,Nelagadarenahalli
25294,13.02569,77.45495,Ganesha Circle Vaddarahalli
23931,12.95645,77.62110,Vannarapet
31013,13.00930,77.56900,CS-Kendriya Vidyalaya Malleshwara
26707,12.84424,77.49762,Stone Factory
22000,12.97400,77.64103,Indiranagara 6th Main
21273,12.99557,77.53992,Kamalanagara Water Tank
36161,12.93168,77.58607,JBS5
22417,13.01169,77.67891,Ramamurthy Nagara Church
24037,12.91820,77.75454,Thippasandra Gate
26688,12.91462,77.44773,St Clare School
21274,12.99546,77.53977,Water Tank Kamalanagara
34708,12.84428,77.49759,Stone Factory
24024,12.91824,77.75456,Thippasandra Gate
38960,12.91372,77.48663,CS-Kengeri Bus Stand
29998,13.01618,77.70932,Bhattarahalli Cross
28108,13.06533,77.28899,Sahukarapalya
38170,13.06606,77.58089,KDGCN
32604,12.95041,77.62546,Fairland Shop
33720,13.24478,77.47203,Madagondanahalli
21983,12.88431,77.55134,Gubbalala Gate
25008,12.93956,77.47289,Dodda Basti
28462,13.06200,77.29674,Lakkenahalli Cross
32289,12.84537,77.51418,Chikka Thataguni
20914,13.00400,77.66328,Kasthurinagara
36721,12.99839,77.62389,ITC Factory
35008,13.16981,77.58048,Thimmasandra Circle
32029,13.01616,77.70931,Bhattarahalli Cross
34140,13.07899,77.36737,Shanthinagara Nelamangala
21978,12.91152,77.55591,Gowdanapalya
39489,12.95813,77.66949,HAL Admin Gate
31061,13.12913,77.40026,KG Srinivasapura Cross
22456,13.05090,77.75676,Sapthagiri Convention Hall
20651,12.94195,77.50599,BUC Ladies Hostel
33131,12.91302,77.56349,JHBCS Layout Cross
21962,12.94322,77.54497,Girinagara
32707,12.75350,77.45216,Gollahalli
20591,12.99178,77.53856,8th Main Kamalanagara
29407,13.10426,77.57000,4th Phase Yelahanka New Town Iyengar Bakery
21945,12.97206,77.65412,Ganesha Temple Thippasandra
36164,12.92434,77.61817,MDVL1
25821,13.17903,77.95110,Hedakanahalli
36165,12.83831,77.40250,WDRLA1
39490,12.95801,77.66930,HAL Admin Gate
38958,12.95744,77.61435,CS-Neelasandra Bus Stand
21063,12.90277,77.46944,NICE Road Kengeri Road Junction
39686,12.96677,77.68276,CS-Basavanagara
39516,12.93127,77.49719,UPD
21224,13.06819,77.48944,Thotada Guddadahalli
35920,13.02820,77.63291,Hennuru Junction
20652,12.94439,77.50435,BUC Library
24096,13.01199,77.54408,Mahalakshmi Layout
29098,13.24293,77.44788,Muppadaghatta
35549,13.17292,77.56963,Addiganahalli
21720,12.96682,77.68276,Basavanagara
24383,12.98016,77.37505,Center for Learning School Campus Magadi Road
32204,12.99556,77.60172,Canara Bank Millers Road
36166,12.83832,77.40246,WNDRL2
33061,13.03391,77.56860,ITI Layout
34425,13.04264,77.56658,RMV 2nd Stage
21029,13.02771,77.57162,MS Ramaiah Hospital
21992,12.78673,77.74190,Guestline Hotel
31310,13.06818,77.47610,Kudurugere Colony
34504,12.97011,77.31390,Sevanagara Varadenahalli
21173,12.98328,77.60304,Shivajinagara Bus Station
30441,13.22152,77.64808,Jogahalli
22572,12.90842,77.53458,Poornaprajna Layout Water Tank
22014,13.10772,77.66564,Hamsa Farm
38962,13.01651,77.58615,ARMY PUBLIC SCHOOL (Parachute Regiment)
29103,12.83622,77.73720,Muthanallur Colony
27367,13.13958,77.46978,Vivekananda Vidyavardhaka School
38839,13.25959,77.42421,Agrahara
21626,13.13865,77.47451,Vinayaka Nagara Hesarghatta
21220,13.10124,77.48081,Tharabanahalli
38562,12.99847,77.62384,ITC Factory Fly
35914,12.96212,77.47850,Ullala Satellite Town Cross
34615,13.09961,77.74378,Singarapura
33085,13.01419,77.53174,Jai Bhuvaneshwari Nagara
29445,13.17297,77.56958,Addiganahalli
38963,13.01702,77.58698,ARMY
36731,12.98344,77.67973,CV Raman Nagara Railway Gate
38961,13.01671,77.58643,CS-ARMY PUBLIC SCHOOL (Parachute Regiment)
35259,12.91542,77.76565,Kathriguppe
27872,13.17246,77.56448,Rajanukunte
38837,13.27049,77.41604,Doddahejjaji
25096,12.85302,77.59989,Doddakammanahalli
25827,13.07599,77.45857,Heggadadevanapura
29037,13.01761,77.31175,Motaganahalli Bishop Cotton School
20909,12.86317,77.43352,Kanminake
35738,12.94312,77.58529,CS-Ashoka Pillar
31010,12.92597,77.62045,Kendriya Sadana Koramangala
21939,13.05478,77.54139,Fathima Church
